{"type":"FeatureCollection","features":[{"type":"Feature","properties":{"city_code":"13306","city_name":"五日市","address":"東京都　西多摩郡五日市町戸倉字西戸倉５２５番３","station":null,"distance_from_station":3100,"price":85000},"geometry":{"type":"Point","coordinates":[139.20145,35.7295533]}},{"type":"Feature","properties":{"city_code":"13205","city_name":"青梅","address":"東京都　青梅市二俣尾５丁目６２番４外","station":null,"distance_from_station":1400,"price":52000},"geometry":{"type":"Point","coordinates":[139.204004,35.8177683]}},{"type":"Feature","properties":{"city_code":"13306","city_name":"五日市","address":"東京都　西多摩郡五日市町小中野字大鳥前３５８番２","station":null,"distance_from_station":1400,"price":167000},"geometry":{"type":"Point","coordinates":[139.21619,35.7284758]}},{"type":"Feature","properties":{"city_code":"13205","city_name":"青梅","address":"東京都　青梅市二俣尾２丁目４２０番４","station":null,"distance_from_station":660,"price":183000},"geometry":{"type":"Point","coordinates":[139.220305,35.7983992]}},{"type":"Feature","properties":{"city_code":"13306","city_name":"五日市","address":"東京都　西多摩郡五日市町小和田字北ノ前１４７番３外","station":null,"distance_from_station":1400,"price":131000},"geometry":{"type":"Point","coordinates":[139.221481,35.7238678]}},{"type":"Feature","properties":{"city_code":"13205","city_name":"青梅","address":"東京都　青梅市梅郷５丁目９９１番４","station":null,"distance_from_station":750,"price":192000},"geometry":{"type":"Point","coordinates":[139.22551,35.7911272]}},{"type":"Feature","properties":{"city_code":"13306","city_name":"五日市","address":"東京都　西多摩郡五日市町留原字中村７６１番８","station":null,"distance_from_station":700,"price":175000},"geometry":{"type":"Point","coordinates":[139.22868,35.7274511]}},{"type":"Feature","properties":{"city_code":"13205","city_name":"青梅","address":"東京都　青梅市和田町２丁目１６２番４外","station":null,"distance_from_station":1100,"price":190000},"geometry":{"type":"Point","coordinates":[139.229616,35.7827728]}},{"type":"Feature","properties":{"city_code":"13306","city_name":"五日市","address":"東京都　西多摩郡五日市町三内字初後沢４３４番","station":null,"distance_from_station":520,"price":11500},"geometry":{"type":"Point","coordinates":[139.230037,35.7374261]}},{"type":"Feature","properties":{"city_code":"13306","city_name":"五日市","address":"東京都　西多摩郡五日市町舘谷字追原１４２番１６外","station":null,"distance_from_station":450,"price":179000},"geometry":{"type":"Point","coordinates":[139.231051,35.7299308]}},{"type":"Feature","properties":{"city_code":"13306","city_name":"五日市","address":"東京都　西多摩郡五日市町舘谷字追原１９９番２２","station":null,"distance_from_station":500,"price":250000},"geometry":{"type":"Point","coordinates":[139.231857,35.7306175]}},{"type":"Feature","properties":{"city_code":"13205","city_name":"青梅","address":"東京都　青梅市日向和田１丁目２６０番４外","station":null,"distance_from_station":300,"price":212000},"geometry":{"type":"Point","coordinates":[139.23824,35.7860231]}},{"type":"Feature","properties":{"city_code":"13306","city_name":"五日市","address":"東京都　西多摩郡五日市町高尾字橋本１８５番４","station":null,"distance_from_station":1200,"price":173000},"geometry":{"type":"Point","coordinates":[139.238495,35.7275269]}},{"type":"Feature","properties":{"city_code":"13305","city_name":"日の出","address":"東京都　西多摩郡日の出町大字大久野字萱窪８７３番２５","station":null,"distance_from_station":3000,"price":165000},"geometry":{"type":"Point","coordinates":[139.243807,35.7448783]}},{"type":"Feature","properties":{"city_code":"13201","city_name":"八王子","address":"東京都　八王子市美山町５５３番１","station":null,"distance_from_station":10600,"price":88000},"geometry":{"type":"Point","coordinates":[139.244214,35.6925047]}},{"type":"Feature","properties":{"city_code":"13305","city_name":"日の出","address":"東京都　西多摩郡日の出町大字大久野字玉ノ内８１５８番","station":null,"distance_from_station":2900,"price":9500},"geometry":{"type":"Point","coordinates":[139.246952,35.7521842]}},{"type":"Feature","properties":{"city_code":"13201","city_name":"八王子","address":"東京都　八王子市美山町９４６番","station":null,"distance_from_station":8300,"price":18600},"geometry":{"type":"Point","coordinates":[139.247372,35.6863411]}},{"type":"Feature","properties":{"city_code":"13205","city_name":"青梅","address":"東京都　青梅市青梅字下裏宿６８７番１","station":null,"distance_from_station":1100,"price":226000},"geometry":{"type":"Point","coordinates":[139.24766,35.7910125]}},{"type":"Feature","properties":{"city_code":"13306","city_name":"五日市","address":"東京都　西多摩郡五日市町伊奈字新宿１１２７番４","station":null,"distance_from_station":1000,"price":240000},"geometry":{"type":"Point","coordinates":[139.249563,35.7269306]}},{"type":"Feature","properties":{"city_code":"13201","city_name":"八王子","address":"東京都　八王子市裏高尾町１１１２番１","station":null,"distance_from_station":3000,"price":114000},"geometry":{"type":"Point","coordinates":[139.251016,35.6396883]}},{"type":"Feature","properties":{"city_code":"13205","city_name":"青梅","address":"東京都　青梅市青梅字大柳１４１４番３","station":null,"distance_from_station":1000,"price":257000},"geometry":{"type":"Point","coordinates":[139.252397,35.7851539]}},{"type":"Feature","properties":{"city_code":"13205","city_name":"青梅","address":"東京都　青梅市駒木町３丁目４４番１","station":null,"distance_from_station":2000,"price":174000},"geometry":{"type":"Point","coordinates":[139.252621,35.7808317]}},{"type":"Feature","properties":{"city_code":"13305","city_name":"日の出","address":"東京都　西多摩郡日の出町大字平井字中野２２７７番４","station":null,"distance_from_station":1500,"price":166000},"geometry":{"type":"Point","coordinates":[139.253083,35.7412458]}},{"type":"Feature","properties":{"city_code":"13205","city_name":"青梅","address":"東京都　青梅市黒沢３丁目１６９１番","station":null,"distance_from_station":1900,"price":5400},"geometry":{"type":"Point","coordinates":[139.25371,35.8019531]}},{"type":"Feature","properties":{"city_code":"13201","city_name":"八王子","address":"東京都　八王子市下恩方町２０９５番６","station":null,"distance_from_station":5400,"price":160000},"geometry":{"type":"Point","coordinates":[139.25481,35.6683628]}},{"type":"Feature","properties":{"city_code":"13306","city_name":"五日市","address":"東京都　西多摩郡五日市町山田字上分９５６番７","station":null,"distance_from_station":750,"price":193000},"geometry":{"type":"Point","coordinates":[139.258057,35.7258036]}},{"type":"Feature","properties":{"city_code":"13305","city_name":"日の出","address":"東京都　西多摩郡日の出町大字平井字東本宿１９７３番５","station":null,"distance_from_station":950,"price":171000},"geometry":{"type":"Point","coordinates":[139.258956,35.7370281]}},{"type":"Feature","properties":{"city_code":"13205","city_name":"青梅","address":"東京都　青梅市長渕８丁目１２２番２","station":null,"distance_from_station":1900,"price":189000},"geometry":{"type":"Point","coordinates":[139.261145,35.7802669]}},{"type":"Feature","properties":{"city_code":"13205","city_name":"青梅","address":"東京都　青梅市成木３丁目３７０番７外","station":null,"distance_from_station":6000,"price":108000},"geometry":{"type":"Point","coordinates":[139.26122,35.8283586]}},{"type":"Feature","properties":{"city_code":"13305","city_name":"日の出","address":"東京都　西多摩郡日の出町大字平井字道場１７３８番３","station":null,"distance_from_station":1300,"price":136000},"geometry":{"type":"Point","coordinates":[139.262724,35.7373011]}},{"type":"Feature","properties":{"city_code":"13205","city_name":"青梅","address":"東京都　青梅市西分町２丁目４９番１外","station":null,"distance_from_station":550,"price":486000},"geometry":{"type":"Point","coordinates":[139.26278,35.7893047]}},{"type":"Feature","properties":{"city_code":"13201","city_name":"八王子","address":"東京都　八王子市元八王子町３丁目２６４１番２外","station":null,"distance_from_station":3000,"price":100000},"geometry":{"type":"Point","coordinates":[139.263264,35.6564239]}},{"type":"Feature","properties":{"city_code":"13205","city_name":"青梅","address":"東京都　青梅市根ケ布２丁目２３７番２１４","station":null,"distance_from_station":2000,"price":184000},"geometry":{"type":"Point","coordinates":[139.264075,35.8038783]}},{"type":"Feature","properties":{"city_code":"13201","city_name":"八王子","address":"東京都　八王子市上川町２９３６番外","station":null,"distance_from_station":9500,"price":61000},"geometry":{"type":"Point","coordinates":[139.26448,35.6983775]}},{"type":"Feature","properties":{"city_code":"13226","city_name":"秋川","address":"東京都　秋川市引田字静ノ郷６１３番５","station":null,"distance_from_station":1000,"price":195000},"geometry":{"type":"Point","coordinates":[139.265873,35.7243031]}},{"type":"Feature","properties":{"city_code":"13201","city_name":"八王子","address":"東京都　八王子市上川町１９５８番３","station":null,"distance_from_station":8700,"price":139000},"geometry":{"type":"Point","coordinates":[139.265974,35.7005767]}},{"type":"Feature","properties":{"city_code":"13201","city_name":"八王子","address":"東京都　八王子市西寺方町１０１９番６４","station":null,"distance_from_station":5700,"price":175000},"geometry":{"type":"Point","coordinates":[139.266167,35.6869844]}},{"type":"Feature","properties":{"city_code":"13205","city_name":"青梅","address":"東京都　青梅市千ケ瀬町４丁目３７２番８","station":null,"distance_from_station":1100,"price":276000},"geometry":{"type":"Point","coordinates":[139.268078,35.7868764]}},{"type":"Feature","properties":{"city_code":"13201","city_name":"八王子","address":"東京都　八王子市元八王子町３丁目２７５０番７９７","station":null,"distance_from_station":2100,"price":205000},"geometry":{"type":"Point","coordinates":[139.268588,35.6508792]}},{"type":"Feature","properties":{"city_code":"13205","city_name":"青梅","address":"東京都　青梅市長渕５丁目５４０番１","station":null,"distance_from_station":1800,"price":185000},"geometry":{"type":"Point","coordinates":[139.269172,35.7791383]}},{"type":"Feature","properties":{"city_code":"13205","city_name":"青梅","address":"東京都　青梅市勝沼２丁目２２７番２","station":null,"distance_from_station":450,"price":226000},"geometry":{"type":"Point","coordinates":[139.269743,35.7927211]}},{"type":"Feature","properties":{"city_code":"13201","city_name":"八王子","address":"東京都　八王子市西浅川町５６番７","station":null,"distance_from_station":1000,"price":240000},"geometry":{"type":"Point","coordinates":[139.270811,35.6406906]}},{"type":"Feature","properties":{"city_code":"13205","city_name":"青梅","address":"東京都　青梅市千ケ瀬３丁目４３５番１","station":null,"distance_from_station":900,"price":228000},"geometry":{"type":"Point","coordinates":[139.270839,35.7838633]}},{"type":"Feature","properties":{"city_code":"13205","city_name":"青梅","address":"東京都　青梅市長渕９丁目９６７番","station":null,"distance_from_station":3500,"price":50000},"geometry":{"type":"Point","coordinates":[139.272098,35.7654367]}},{"type":"Feature","properties":{"city_code":"13305","city_name":"日の出","address":"東京都　西多摩郡日の出町大字平井字三吉野下平井１０５８番１","station":null,"distance_from_station":1500,"price":185000},"geometry":{"type":"Point","coordinates":[139.272228,35.7418214]}},{"type":"Feature","properties":{"city_code":"13201","city_name":"八王子","address":"東京都　八王子市川町１２８番１０２","station":null,"distance_from_station":4300,"price":230000},"geometry":{"type":"Point","coordinates":[139.272599,35.6721961]}},{"type":"Feature","properties":{"city_code":"13201","city_name":"八王子","address":"東京都　八王子市元八王子町３丁目２１５３番９５","station":null,"distance_from_station":1800,"price":207000},"geometry":{"type":"Point","coordinates":[139.273641,35.6518342]}},{"type":"Feature","properties":{"city_code":"13305","city_name":"日の出","address":"東京都　西多摩郡日の出町大字平井字三吉野清坊６６９番２","station":null,"distance_from_station":1300,"price":178000},"geometry":{"type":"Point","coordinates":[139.273643,35.7392153]}},{"type":"Feature","properties":{"city_code":"13201","city_name":"八王子","address":"東京都　八王子市西寺方町７１２番３８","station":null,"distance_from_station":5100,"price":185000},"geometry":{"type":"Point","coordinates":[139.274684,35.6810703]}},{"type":"Feature","properties":{"city_code":"13205","city_name":"青梅","address":"東京都　青梅市小曽木３丁目２０２４番１外","station":null,"distance_from_station":4500,"price":111000},"geometry":{"type":"Point","coordinates":[139.27518,35.8215253]}},{"type":"Feature","properties":{"city_code":"13201","city_name":"八王子","address":"東京都　八王子市高尾町１７３３番３","station":null,"distance_from_station":700,"price":255000},"geometry":{"type":"Point","coordinates":[139.275206,35.6423292]}},{"type":"Feature","properties":{"city_code":"13201","city_name":"八王子","address":"東京都　八王子市川町６１１番１","station":null,"distance_from_station":4500,"price":180000},"geometry":{"type":"Point","coordinates":[139.27522,35.6703014]}},{"type":"Feature","properties":{"city_code":"13201","city_name":"八王子","address":"東京都　八王子市初沢町１４２９番６４","station":null,"distance_from_station":700,"price":215000},"geometry":{"type":"Point","coordinates":[139.275608,35.6392444]}},{"type":"Feature","properties":{"city_code":"13201","city_name":"八王子","address":"東京都　八王子市弐分方町１８８番１外","station":null,"distance_from_station":5000,"price":27000},"geometry":{"type":"Point","coordinates":[139.275934,35.6766047]}},{"type":"Feature","properties":{"city_code":"13201","city_name":"八王子","address":"東京都　八王子市元八王子町３丁目２２４７番２","station":null,"distance_from_station":1700,"price":200000},"geometry":{"type":"Point","coordinates":[139.275976,35.6548267]}},{"type":"Feature","properties":{"city_code":"13201","city_name":"八王子","address":"東京都　八王子市初沢町１４２９番３７２","station":null,"distance_from_station":800,"price":225000},"geometry":{"type":"Point","coordinates":[139.276399,35.6361517]}},{"type":"Feature","properties":{"city_code":"13226","city_name":"秋川","address":"東京都　秋川市菅生字上１８２４番１","station":null,"distance_from_station":4400,"price":11900},"geometry":{"type":"Point","coordinates":[139.276918,35.7576586]}},{"type":"Feature","properties":{"city_code":"13205","city_name":"青梅","address":"東京都　青梅市師岡町１丁目４４０番","station":null,"distance_from_station":670,"price":277000},"geometry":{"type":"Point","coordinates":[139.27904,35.7923328]}},{"type":"Feature","properties":{"city_code":"13201","city_name":"八王子","address":"東京都　八王子市狭間町１９９４番１４４","station":null,"distance_from_station":2100,"price":230000},"geometry":{"type":"Point","coordinates":[139.279417,35.6321644]}},{"type":"Feature","properties":{"city_code":"13201","city_name":"八王子","address":"東京都　八王子市川口町２９０３番１３外","station":null,"distance_from_station":6300,"price":179000},"geometry":{"type":"Point","coordinates":[139.27967,35.6947286]}},{"type":"Feature","properties":{"city_code":"13205","city_name":"青梅","address":"東京都　青梅市東青梅５丁目７番２５","station":null,"distance_from_station":700,"price":331000},"geometry":{"type":"Point","coordinates":[139.280877,35.7875975]}},{"type":"Feature","properties":{"city_code":"13205","city_name":"青梅","address":"東京都　青梅市東青梅４丁目１２番７","station":null,"distance_from_station":400,"price":320000},"geometry":{"type":"Point","coordinates":[139.281035,35.7854869]}},{"type":"Feature","properties":{"city_code":"13205","city_name":"青梅","address":"東京都　青梅市河辺町５丁目５番１０","station":null,"distance_from_station":240,"price":662000},"geometry":{"type":"Point","coordinates":[139.282706,35.7837853]}},{"type":"Feature","properties":{"city_code":"13205","city_name":"青梅","address":"東京都　青梅市友田町５丁目４５５番３","station":null,"distance_from_station":2400,"price":194000},"geometry":{"type":"Point","coordinates":[139.28277,35.7723314]}},{"type":"Feature","properties":{"city_code":"13205","city_name":"青梅","address":"東京都　青梅市友田町５丁目１１１４番","station":null,"distance_from_station":2500,"price":14000},"geometry":{"type":"Point","coordinates":[139.282817,35.7709539]}},{"type":"Feature","properties":{"city_code":"13205","city_name":"青梅","address":"東京都　青梅市師岡町３丁目４番１３","station":null,"distance_from_station":800,"price":319000},"geometry":{"type":"Point","coordinates":[139.282961,35.7896711]}},{"type":"Feature","properties":{"city_code":"13201","city_name":"八王子","address":"東京都　八王子市狭間町１８０４番３２","station":null,"distance_from_station":1200,"price":249000},"geometry":{"type":"Point","coordinates":[139.28424,35.6344136]}},{"type":"Feature","properties":{"city_code":"13201","city_name":"八王子","address":"東京都　八王子市川口町２４５５番","station":null,"distance_from_station":6500,"price":23000},"geometry":{"type":"Point","coordinates":[139.285329,35.6951125]}},{"type":"Feature","properties":{"city_code":"13205","city_name":"青梅","address":"東京都　青梅市河辺町１０丁目８番２外","station":null,"distance_from_station":130,"price":1280000},"geometry":{"type":"Point","coordinates":[139.285407,35.7856692]}},{"type":"Feature","properties":{"city_code":"13205","city_name":"青梅","address":"東京都　青梅市大門１丁目８０８番３外","station":null,"distance_from_station":1900,"price":192000},"geometry":{"type":"Point","coordinates":[139.285856,35.7999781]}},{"type":"Feature","properties":{"city_code":"13226","city_name":"秋川","address":"東京都　秋川市瀬戸岡字霞野３２２番５","station":null,"distance_from_station":1000,"price":185000},"geometry":{"type":"Point","coordinates":[139.285895,35.7371575]}},{"type":"Feature","properties":{"city_code":"13201","city_name":"八王子","address":"東京都　八王子市元八王子町１丁目４２４番５","station":null,"distance_from_station":3000,"price":270000},"geometry":{"type":"Point","coordinates":[139.286924,35.6650128]}},{"type":"Feature","properties":{"city_code":"13201","city_name":"八王子","address":"東京都　八王子市大楽寺町２２５番５","station":null,"distance_from_station":6000,"price":203000},"geometry":{"type":"Point","coordinates":[139.287132,35.6751906]}},{"type":"Feature","properties":{"city_code":"13201","city_name":"八王子","address":"東京都　八王子市狭間町１７３７番５","station":null,"distance_from_station":950,"price":400000},"geometry":{"type":"Point","coordinates":[139.28738,35.6368142]}},{"type":"Feature","properties":{"city_code":"13201","city_name":"八王子","address":"東京都　八王子市東浅川町３３９番４外","station":null,"distance_from_station":900,"price":298000},"geometry":{"type":"Point","coordinates":[139.288096,35.6450269]}},{"type":"Feature","properties":{"city_code":"13201","city_name":"八王子","address":"東京都　八王子市諏訪町２１番３外","station":null,"distance_from_station":3500,"price":310000},"geometry":{"type":"Point","coordinates":[139.288301,35.6765619]}},{"type":"Feature","properties":{"city_code":"13201","city_name":"八王子","address":"東京都　八王子市上壱分方町３５３番４０","station":null,"distance_from_station":4500,"price":192000},"geometry":{"type":"Point","coordinates":[139.28899,35.6831725]}},{"type":"Feature","properties":{"city_code":"13201","city_name":"八王子","address":"東京都　八王子市諏訪町１７番１５","station":null,"distance_from_station":3300,"price":218000},"geometry":{"type":"Point","coordinates":[139.28955,35.6768703]}},{"type":"Feature","properties":{"city_code":"13226","city_name":"秋川","address":"東京都　秋川市雨間字澤田４１９番３","station":null,"distance_from_station":600,"price":205000},"geometry":{"type":"Point","coordinates":[139.289633,35.7242492]}},{"type":"Feature","properties":{"city_code":"13205","city_name":"青梅","address":"東京都　青梅市河辺町６丁目１０番６","station":null,"distance_from_station":900,"price":317000},"geometry":{"type":"Point","coordinates":[139.290523,35.7786936]}},{"type":"Feature","properties":{"city_code":"13226","city_name":"秋川","address":"東京都　秋川市二宮字南中塚場３０６番１外","station":null,"distance_from_station":650,"price":242000},"geometry":{"type":"Point","coordinates":[139.291728,35.7301342]}},{"type":"Feature","properties":{"city_code":"13201","city_name":"八王子","address":"東京都　八王子市東浅川町２０７番１","station":null,"distance_from_station":1200,"price":480000},"geometry":{"type":"Point","coordinates":[139.291969,35.6470647]}},{"type":"Feature","properties":{"city_code":"13201","city_name":"八王子","address":"東京都　八王子市川口町１５７６番１外","station":null,"distance_from_station":6300,"price":284000},"geometry":{"type":"Point","coordinates":[139.292407,35.6874253]}},{"type":"Feature","properties":{"city_code":"13205","city_name":"青梅","address":"東京都　青梅市木野下２丁目２３４番２","station":null,"distance_from_station":3000,"price":179000},"geometry":{"type":"Point","coordinates":[139.29256,35.8037625]}},{"type":"Feature","properties":{"city_code":"13226","city_name":"秋川","address":"東京都　秋川市瀬戸岡字庚申塚４９２番２","station":null,"distance_from_station":1400,"price":155000},"geometry":{"type":"Point","coordinates":[139.292784,35.7375992]}},{"type":"Feature","properties":{"city_code":"13205","city_name":"青梅","address":"東京都　青梅市大門３丁目２０番１０","station":null,"distance_from_station":1800,"price":275000},"geometry":{"type":"Point","coordinates":[139.293271,35.7938044]}},{"type":"Feature","properties":{"city_code":"13201","city_name":"八王子","address":"東京都　八王子市戸吹町３３４番８","station":null,"distance_from_station":8300,"price":155000},"geometry":{"type":"Point","coordinates":[139.294626,35.7087147]}},{"type":"Feature","properties":{"city_code":"13201","city_name":"八王子","address":"東京都　八王子市長房町７９８番５外","station":null,"distance_from_station":2500,"price":223000},"geometry":{"type":"Point","coordinates":[139.29466,35.6578233]}},{"type":"Feature","properties":{"city_code":"13201","city_name":"八王子","address":"東京都　八王子市横川町９５６番１５","station":null,"distance_from_station":2100,"price":202000},"geometry":{"type":"Point","coordinates":[139.294892,35.6645692]}},{"type":"Feature","properties":{"city_code":"13201","city_name":"八王子","address":"東京都　八王子市川口町１５１５番１９","station":null,"distance_from_station":4000,"price":190000},"geometry":{"type":"Point","coordinates":[139.295126,35.6853706]}},{"type":"Feature","properties":{"city_code":"13201","city_name":"八王子","address":"東京都　八王子市横川町８３７番１５","station":null,"distance_from_station":2800,"price":246000},"geometry":{"type":"Point","coordinates":[139.295392,35.6686775]}},{"type":"Feature","properties":{"city_code":"13201","city_name":"八王子","address":"東京都　八王子市四谷町７６１番１","station":null,"distance_from_station":3200,"price":225000},"geometry":{"type":"Point","coordinates":[139.29568,35.6748775]}},{"type":"Feature","properties":{"city_code":"13227","city_name":"羽村","address":"東京都　羽村市羽西３－３－２８","station":null,"distance_from_station":800,"price":230000},"geometry":{"type":"Point","coordinates":[139.295755,35.7731681]}},{"type":"Feature","properties":{"city_code":"13201","city_name":"八王子","address":"東京都　八王子市長房町２３０番９５","station":null,"distance_from_station":2000,"price":238000},"geometry":{"type":"Point","coordinates":[139.296119,35.6598219]}},{"type":"Feature","properties":{"city_code":"13201","city_name":"八王子","address":"東京都　八王子市四谷町７３８番１","station":null,"distance_from_station":3000,"price":320000},"geometry":{"type":"Point","coordinates":[139.29709,35.6755108]}},{"type":"Feature","properties":{"city_code":"13201","city_name":"八王子","address":"東京都　八王子市戸吹町１９５６番４","station":null,"distance_from_station":9000,"price":80000},"geometry":{"type":"Point","coordinates":[139.298274,35.7057089]}},{"type":"Feature","properties":{"city_code":"13201","city_name":"八王子","address":"東京都　八王子市東浅川町１番４０","station":null,"distance_from_station":1500,"price":315000},"geometry":{"type":"Point","coordinates":[139.29834,35.6508314]}},{"type":"Feature","properties":{"city_code":"13201","city_name":"八王子","address":"東京都　八王子市館町１６４６番７","station":null,"distance_from_station":2200,"price":210000},"geometry":{"type":"Point","coordinates":[139.298559,35.6318325]}},{"type":"Feature","properties":{"city_code":"13201","city_name":"八王子","address":"東京都　八王子市東浅川町６５４番４","station":null,"distance_from_station":1000,"price":258000},"geometry":{"type":"Point","coordinates":[139.298911,35.6434261]}},{"type":"Feature","properties":{"city_code":"13201","city_name":"八王子","address":"東京都　八王子市館町２９８番１０","station":null,"distance_from_station":1000,"price":290000},"geometry":{"type":"Point","coordinates":[139.29948,35.6357375]}},{"type":"Feature","properties":{"city_code":"13226","city_name":"秋川","address":"東京都　秋川市草花字羽ケ田２９１９番４","station":null,"distance_from_station":2300,"price":181000},"geometry":{"type":"Point","coordinates":[139.300339,35.7411272]}},{"type":"Feature","properties":{"city_code":"13201","city_name":"八王子","address":"東京都　八王子市横川町７１５番１","station":null,"distance_from_station":1800,"price":215000},"geometry":{"type":"Point","coordinates":[139.301983,35.6641294]}},{"type":"Feature","properties":{"city_code":"13201","city_name":"八王子","address":"東京都　八王子市散田町５－１３－８","station":null,"distance_from_station":1300,"price":370000},"geometry":{"type":"Point","coordinates":[139.3024,35.6498994]}},{"type":"Feature","properties":{"city_code":"13227","city_name":"羽村","address":"東京都　羽村市小作台５丁目２０番２","station":null,"distance_from_station":350,"price":326000},"geometry":{"type":"Point","coordinates":[139.302491,35.7736711]}},{"type":"Feature","properties":{"city_code":"13209","city_name":"町田","address":"東京都　町田市相原町字川島３１６６番３","station":null,"distance_from_station":3100,"price":225000},"geometry":{"type":"Point","coordinates":[139.302822,35.6059172]}},{"type":"Feature","properties":{"city_code":"13201","city_name":"八王子","address":"東京都　八王子市並木町８－１６","station":null,"distance_from_station":1000,"price":725000},"geometry":{"type":"Point","coordinates":[139.302881,35.6528875]}},{"type":"Feature","properties":{"city_code":"13201","city_name":"八王子","address":"東京都　八王子市椚田町５６８番８","station":null,"distance_from_station":1300,"price":296000},"geometry":{"type":"Point","coordinates":[139.302999,35.6370292]}},{"type":"Feature","properties":{"city_code":"13201","city_name":"八王子","address":"東京都　八王子市長房町５６番３３","station":null,"distance_from_station":1500,"price":230000},"geometry":{"type":"Point","coordinates":[139.304149,35.6616525]}},{"type":"Feature","properties":{"city_code":"13201","city_name":"八王子","address":"東京都　八王子市宮下町５８６番１","station":null,"distance_from_station":8100,"price":237000},"geometry":{"type":"Point","coordinates":[139.304686,35.70591]}},{"type":"Feature","properties":{"city_code":"13201","city_name":"八王子","address":"東京都　八王子市めじろ台４丁目２０番４","station":null,"distance_from_station":280,"price":423000},"geometry":{"type":"Point","coordinates":[139.305654,35.6445703]}},{"type":"Feature","properties":{"city_code":"13205","city_name":"青梅","address":"東京都　青梅市藤橋２丁目５４１番６","station":null,"distance_from_station":2700,"price":186000},"geometry":{"type":"Point","coordinates":[139.305664,35.8011119]}},{"type":"Feature","properties":{"city_code":"13227","city_name":"羽村","address":"東京都　羽村市羽字玉川附６９０番６２","station":null,"distance_from_station":1400,"price":208000},"geometry":{"type":"Point","coordinates":[139.306575,35.7535936]}},{"type":"Feature","properties":{"city_code":"13201","city_name":"八王子","address":"東京都　八王子市楢原町１２７１番３９","station":null,"distance_from_station":3700,"price":256000},"geometry":{"type":"Point","coordinates":[139.30701,35.6735886]}},{"type":"Feature","properties":{"city_code":"13205","city_name":"青梅","address":"東京都　青梅市新町字富士塚９１７番１８外","station":null,"distance_from_station":1800,"price":260000},"geometry":{"type":"Point","coordinates":[139.307081,35.7909814]}},{"type":"Feature","properties":{"city_code":"13201","city_name":"八王子","address":"東京都　八王子市犬目町５９０番１","station":null,"distance_from_station":6000,"price":185000},"geometry":{"type":"Point","coordinates":[139.307449,35.6897447]}},{"type":"Feature","properties":{"city_code":"13201","city_name":"八王子","address":"東京都　八王子市宮下町７０６番４外","station":null,"distance_from_station":7500,"price":159000},"geometry":{"type":"Point","coordinates":[139.30752,35.7033633]}},{"type":"Feature","properties":{"city_code":"13201","city_name":"八王子","address":"東京都　八王子市楢原町８７３番２","station":null,"distance_from_station":5300,"price":214000},"geometry":{"type":"Point","coordinates":[139.307591,35.6826747]}},{"type":"Feature","properties":{"city_code":"13227","city_name":"羽村","address":"東京都　羽村市栄町２丁目１０番１５","station":null,"distance_from_station":800,"price":308000},"geometry":{"type":"Point","coordinates":[139.307646,35.7716414]}},{"type":"Feature","properties":{"city_code":"13201","city_name":"八王子","address":"東京都　八王子市寺田町７６４番２","station":null,"distance_from_station":2300,"price":252000},"geometry":{"type":"Point","coordinates":[139.307821,35.6273733]}},{"type":"Feature","properties":{"city_code":"13201","city_name":"八王子","address":"東京都　八王子市楢原町４５７番５外","station":null,"distance_from_station":2800,"price":356000},"geometry":{"type":"Point","coordinates":[139.30878,35.6796361]}},{"type":"Feature","properties":{"city_code":"13201","city_name":"八王子","address":"東京都　八王子市散田町３－６－２１","station":null,"distance_from_station":450,"price":438000},"geometry":{"type":"Point","coordinates":[139.309393,35.6542061]}},{"type":"Feature","properties":{"city_code":"13201","city_name":"八王子","address":"東京都　八王子市横川町１０８番５５外","station":null,"distance_from_station":1200,"price":279000},"geometry":{"type":"Point","coordinates":[139.31028,35.6661767]}},{"type":"Feature","properties":{"city_code":"13227","city_name":"羽村","address":"東京都　羽村市羽中１－６－４７","station":null,"distance_from_station":900,"price":241000},"geometry":{"type":"Point","coordinates":[139.31073,35.7634803]}},{"type":"Feature","properties":{"city_code":"13201","city_name":"八王子","address":"東京都　八王子市めじろ台２丁目４５番１４","station":null,"distance_from_station":400,"price":395000},"geometry":{"type":"Point","coordinates":[139.310983,35.6414875]}},{"type":"Feature","properties":{"city_code":"13201","city_name":"八王子","address":"東京都　八王子市清川町１７番３","station":null,"distance_from_station":3800,"price":260000},"geometry":{"type":"Point","coordinates":[139.311065,35.6709792]}},{"type":"Feature","properties":{"city_code":"13226","city_name":"秋川","address":"東京都　秋川市野辺字宅地附２３７番５","station":null,"distance_from_station":680,"price":203000},"geometry":{"type":"Point","coordinates":[139.311755,35.7206958]}},{"type":"Feature","properties":{"city_code":"13226","city_name":"秋川","address":"東京都　秋川市平沢字南平３３３番９","station":null,"distance_from_station":750,"price":198000},"geometry":{"type":"Point","coordinates":[139.311969,35.7310547]}},{"type":"Feature","properties":{"city_code":"13205","city_name":"青梅","address":"東京都　青梅市今井２丁目８４５番２","station":null,"distance_from_station":3800,"price":170000},"geometry":{"type":"Point","coordinates":[139.312166,35.8073853]}},{"type":"Feature","properties":{"city_code":"13226","city_name":"秋川","address":"東京都　秋川市二宮字森腰１１３３番４０","station":null,"distance_from_station":250,"price":221000},"geometry":{"type":"Point","coordinates":[139.312247,35.7270275]}},{"type":"Feature","properties":{"city_code":"13201","city_name":"八王子","address":"東京都　八王子市寺田町２５９番５","station":null,"distance_from_station":1500,"price":320000},"geometry":{"type":"Point","coordinates":[139.312465,35.6308689]}},{"type":"Feature","properties":{"city_code":"13227","city_name":"羽村","address":"東京都　羽村市緑ケ丘５丁目１０番４０","station":null,"distance_from_station":1100,"price":290000},"geometry":{"type":"Point","coordinates":[139.31249,35.7671956]}},{"type":"Feature","properties":{"city_code":"13201","city_name":"八王子","address":"東京都　八王子市日吉町１３－３４","station":null,"distance_from_station":700,"price":700000},"geometry":{"type":"Point","coordinates":[139.31344,35.6615283]}},{"type":"Feature","properties":{"city_code":"13201","city_name":"八王子","address":"東京都　八王子市台町４－４４－５","station":null,"distance_from_station":120,"price":1650000},"geometry":{"type":"Point","coordinates":[139.314073,35.6569111]}},{"type":"Feature","properties":{"city_code":"13201","city_name":"八王子","address":"東京都　八王子市元本郷町４－７－１６","station":null,"distance_from_station":1000,"price":440000},"geometry":{"type":"Point","coordinates":[139.314117,35.6635928]}},{"type":"Feature","properties":{"city_code":"13201","city_name":"八王子","address":"東京都　八王子市椚田町５１２番２外","station":null,"distance_from_station":1000,"price":440000},"geometry":{"type":"Point","coordinates":[139.314246,35.6394997]}},{"type":"Feature","properties":{"city_code":"13201","city_name":"八王子","address":"東京都　八王子市犬目町２０８番１１","station":null,"distance_from_station":4700,"price":225000},"geometry":{"type":"Point","coordinates":[139.314656,35.6792075]}},{"type":"Feature","properties":{"city_code":"13227","city_name":"羽村","address":"東京都　羽村市緑ケ丘１丁目１４番４","station":null,"distance_from_station":650,"price":580000},"geometry":{"type":"Point","coordinates":[139.314988,35.7630636]}},{"type":"Feature","properties":{"city_code":"13201","city_name":"八王子","address":"東京都　八王子市元本郷町３－１７－２５","station":null,"distance_from_station":1400,"price":360000},"geometry":{"type":"Point","coordinates":[139.31604,35.6655317]}},{"type":"Feature","properties":{"city_code":"13227","city_name":"羽村","address":"東京都　羽村市五ノ神４丁目１４番４","station":null,"distance_from_station":90,"price":690000},"geometry":{"type":"Point","coordinates":[139.316088,35.7594094]}},{"type":"Feature","properties":{"city_code":"13209","city_name":"町田","address":"東京都　町田市相原町字七国２２９４番","station":null,"distance_from_station":2000,"price":25000},"geometry":{"type":"Point","coordinates":[139.316449,35.6120536]}},{"type":"Feature","properties":{"city_code":"13201","city_name":"八王子","address":"東京都　八王子市散田町２－３２－２","station":null,"distance_from_station":1100,"price":295000},"geometry":{"type":"Point","coordinates":[139.31692,35.6500628]}},{"type":"Feature","properties":{"city_code":"13227","city_name":"羽村","address":"東京都　羽村市川崎１－５－１０","station":null,"distance_from_station":550,"price":260000},"geometry":{"type":"Point","coordinates":[139.317598,35.7546528]}},{"type":"Feature","properties":{"city_code":"13226","city_name":"秋川","address":"東京都　秋川市二宮字南分２２１６番１","station":null,"distance_from_station":700,"price":353000},"geometry":{"type":"Point","coordinates":[139.317733,35.7274906]}},{"type":"Feature","properties":{"city_code":"13201","city_name":"八王子","address":"東京都　八王子市台町４－３２－１７","station":null,"distance_from_station":700,"price":440000},"geometry":{"type":"Point","coordinates":[139.318701,35.656965]}},{"type":"Feature","properties":{"city_code":"13201","city_name":"八王子","address":"東京都　八王子市中野上町３－３６－１０","station":null,"distance_from_station":2500,"price":243000},"geometry":{"type":"Point","coordinates":[139.318925,35.6740656]}},{"type":"Feature","properties":{"city_code":"13201","city_name":"八王子","address":"東京都　八王子市小比企町１８１０番７","station":null,"distance_from_station":1000,"price":234000},"geometry":{"type":"Point","coordinates":[139.319464,35.6382925]}},{"type":"Feature","properties":{"city_code":"13226","city_name":"秋川","address":"東京都　秋川市平沢東１丁目３番３","station":null,"distance_from_station":980,"price":227000},"geometry":{"type":"Point","coordinates":[139.320021,35.7299358]}},{"type":"Feature","properties":{"city_code":"13201","city_name":"八王子","address":"東京都　八王子市台町４－２５－１７","station":null,"distance_from_station":850,"price":432000},"geometry":{"type":"Point","coordinates":[139.320528,35.6586219]}},{"type":"Feature","properties":{"city_code":"13218","city_name":"福生","address":"東京都　福生市大字福生字奈賀１１７３番５","station":null,"distance_from_station":750,"price":297000},"geometry":{"type":"Point","coordinates":[139.321383,35.7428269]}},{"type":"Feature","properties":{"city_code":"13201","city_name":"八王子","address":"東京都　八王子市緑町２８４番１外","station":null,"distance_from_station":120,"price":380000},"geometry":{"type":"Point","coordinates":[139.321711,35.6455742]}},{"type":"Feature","properties":{"city_code":"13201","city_name":"八王子","address":"東京都　八王子市中野上町１－３２－１９","station":null,"distance_from_station":2600,"price":560000},"geometry":{"type":"Point","coordinates":[139.3223,35.6683036]}},{"type":"Feature","properties":{"city_code":"13209","city_name":"町田","address":"東京都　町田市相原町字松ケ谷戸２０７７番７","station":null,"distance_from_station":1100,"price":259000},"geometry":{"type":"Point","coordinates":[139.322441,35.6068167]}},{"type":"Feature","properties":{"city_code":"13218","city_name":"福生","address":"東京都　福生市加美平３丁目１１番３","station":null,"distance_from_station":700,"price":304000},"geometry":{"type":"Point","coordinates":[139.32387,35.7471289]}},{"type":"Feature","properties":{"city_code":"13201","city_name":"八王子","address":"東京都　八王子市丹木町３丁目１８２番２１","station":null,"distance_from_station":5400,"price":210000},"geometry":{"type":"Point","coordinates":[139.324397,35.6952097]}},{"type":"Feature","properties":{"city_code":"13201","city_name":"八王子","address":"東京都　八王子市中野町２１０４番３３","station":null,"distance_from_station":3300,"price":215000},"geometry":{"type":"Point","coordinates":[139.324504,35.6794592]}},{"type":"Feature","properties":{"city_code":"13201","city_name":"八王子","address":"東京都　八王子市八幡町５－１１","station":null,"distance_from_station":1300,"price":1120000},"geometry":{"type":"Point","coordinates":[139.325077,35.6604217]}},{"type":"Feature","properties":{"city_code":"13226","city_name":"秋川","address":"東京都　秋川市小川東１丁目１３番５","station":null,"distance_from_station":1700,"price":240000},"geometry":{"type":"Point","coordinates":[139.325253,35.71897]}},{"type":"Feature","properties":{"city_code":"13209","city_name":"町田","address":"東京都　町田市相原町字丸山１８０６番３８","station":null,"distance_from_station":1300,"price":251000},"geometry":{"type":"Point","coordinates":[139.325646,35.6099528]}},{"type":"Feature","properties":{"city_code":"13201","city_name":"八王子","address":"東京都　八王子市平岡町３０－１３","station":null,"distance_from_station":1900,"price":439000},"geometry":{"type":"Point","coordinates":[139.3258,35.6645814]}},{"type":"Feature","properties":{"city_code":"13227","city_name":"羽村","address":"東京都　羽村市富士見平１丁目８番１５","station":null,"distance_from_station":1500,"price":285000},"geometry":{"type":"Point","coordinates":[139.326792,35.7670547]}},{"type":"Feature","properties":{"city_code":"13201","city_name":"八王子","address":"東京都　八王子市中野山王２－２１－６","station":null,"distance_from_station":3500,"price":305000},"geometry":{"type":"Point","coordinates":[139.32745,35.6759447]}},{"type":"Feature","properties":{"city_code":"13218","city_name":"福生","address":"東京都　福生市東町６番５","station":null,"distance_from_station":200,"price":360000},"geometry":{"type":"Point","coordinates":[139.327482,35.7440606]}},{"type":"Feature","properties":{"city_code":"13201","city_name":"八王子","address":"東京都　八王子市中野山王１－１７－１０","station":null,"distance_from_station":2600,"price":305000},"geometry":{"type":"Point","coordinates":[139.327524,35.6723214]}},{"type":"Feature","properties":{"city_code":"13201","city_name":"八王子","address":"東京都　八王子市台町１－１４－１０","station":null,"distance_from_station":1400,"price":405000},"geometry":{"type":"Point","coordinates":[139.327887,35.6519042]}},{"type":"Feature","properties":{"city_code":"13303","city_name":"瑞穂","address":"東京都　西多摩郡瑞穂町大字長岡長谷部字中平３６２番２０外","station":null,"distance_from_station":2700,"price":154000},"geometry":{"type":"Point","coordinates":[139.327964,35.78577]}},{"type":"Feature","properties":{"city_code":"13303","city_name":"瑞穂","address":"東京都　西多摩郡瑞穂町長岡２丁目７番５","station":null,"distance_from_station":2300,"price":206000},"geometry":{"type":"Point","coordinates":[139.328013,35.7736994]}},{"type":"Feature","properties":{"city_code":"13218","city_name":"福生","address":"東京都　福生市志茂２番１","station":null,"distance_from_station":500,"price":274000},"geometry":{"type":"Point","coordinates":[139.32833,35.7339786]}},{"type":"Feature","properties":{"city_code":"13218","city_name":"福生","address":"東京都　福生市東町３番１０","station":null,"distance_from_station":0,"price":1680000},"geometry":{"type":"Point","coordinates":[139.32851,35.7428406]}},{"type":"Feature","properties":{"city_code":"13201","city_name":"八王子","address":"東京都　八王子市小比企町１０４１番１","station":null,"distance_from_station":1200,"price":330000},"geometry":{"type":"Point","coordinates":[139.328714,35.6441547]}},{"type":"Feature","properties":{"city_code":"13201","city_name":"八王子","address":"東京都　八王子市丹木町２丁目２９７番","station":null,"distance_from_station":5500,"price":60000},"geometry":{"type":"Point","coordinates":[139.32959,35.6971508]}},{"type":"Feature","properties":{"city_code":"13201","city_name":"八王子","address":"東京都　八王子市緑町１７２番５","station":null,"distance_from_station":1300,"price":250000},"geometry":{"type":"Point","coordinates":[139.329832,35.64839]}},{"type":"Feature","properties":{"city_code":"13218","city_name":"福生","address":"東京都　福生市南田園３丁目６番１５","station":null,"distance_from_station":750,"price":283000},"geometry":{"type":"Point","coordinates":[139.330571,35.7301072]}},{"type":"Feature","properties":{"city_code":"13201","city_name":"八王子","address":"東京都　八王子市本町２２－３","station":null,"distance_from_station":1300,"price":920000},"geometry":{"type":"Point","coordinates":[139.33097,35.6622883]}},{"type":"Feature","properties":{"city_code":"13218","city_name":"福生","address":"東京都　福生市大字熊川字南４３番４","station":null,"distance_from_station":1400,"price":244000},"geometry":{"type":"Point","coordinates":[139.331902,35.7171108]}},{"type":"Feature","properties":{"city_code":"13201","city_name":"八王子","address":"東京都　八王子市滝山町２丁目４６８番７外","station":null,"distance_from_station":5200,"price":300000},"geometry":{"type":"Point","coordinates":[139.332967,35.6927572]}},{"type":"Feature","properties":{"city_code":"13303","city_name":"瑞穂","address":"東京都　西多摩郡瑞穂町長岡１丁目３４番３","station":null,"distance_from_station":2000,"price":207000},"geometry":{"type":"Point","coordinates":[139.332975,35.7754158]}},{"type":"Feature","properties":{"city_code":"13218","city_name":"福生","address":"東京都　福生市武蔵野台１丁目６番７","station":null,"distance_from_station":600,"price":305000},"geometry":{"type":"Point","coordinates":[139.333112,35.7455428]}},{"type":"Feature","properties":{"city_code":"13218","city_name":"福生","address":"東京都　福生市牛浜８６番１","station":null,"distance_from_station":0,"price":725000},"geometry":{"type":"Point","coordinates":[139.333133,35.7343811]}},{"type":"Feature","properties":{"city_code":"13227","city_name":"羽村","address":"東京都　羽村市双葉町２－１３－３８","station":null,"distance_from_station":2000,"price":236000},"geometry":{"type":"Point","coordinates":[139.333244,35.7586469]}},{"type":"Feature","properties":{"city_code":"13201","city_name":"八王子","address":"東京都　八王子市元横山町３－１２－５","station":null,"distance_from_station":1100,"price":495000},"geometry":{"type":"Point","coordinates":[139.333902,35.6643169]}},{"type":"Feature","properties":{"city_code":"13201","city_name":"八王子","address":"東京都　八王子市滝山町２丁目３８８番８","station":null,"distance_from_station":5200,"price":200000},"geometry":{"type":"Point","coordinates":[139.334483,35.6912819]}},{"type":"Feature","properties":{"city_code":"13209","city_name":"町田","address":"東京都　町田市相原町字中ケ谷戸８５７番４１","station":null,"distance_from_station":450,"price":300000},"geometry":{"type":"Point","coordinates":[139.334556,35.6083408]}},{"type":"Feature","properties":{"city_code":"13201","city_name":"八王子","address":"東京都　八王子市梅坪町２９４番３","station":null,"distance_from_station":5300,"price":155000},"geometry":{"type":"Point","coordinates":[139.334689,35.6884481]}},{"type":"Feature","properties":{"city_code":"13201","city_name":"八王子","address":"東京都　八王子市三崎町５－１０","station":null,"distance_from_station":440,"price":2200000},"geometry":{"type":"Point","coordinates":[139.335411,35.6574011]}},{"type":"Feature","properties":{"city_code":"13218","city_name":"福生","address":"東京都　福生市大字熊川字北５８３番１外","station":null,"distance_from_station":330,"price":274000},"geometry":{"type":"Point","coordinates":[139.336617,35.7257219]}},{"type":"Feature","properties":{"city_code":"13201","city_name":"八王子","address":"東京都　八王子市暁町２－２７－２３","station":null,"distance_from_station":2300,"price":280000},"geometry":{"type":"Point","coordinates":[139.336656,35.6729822]}},{"type":"Feature","properties":{"city_code":"13218","city_name":"福生","address":"東京都　福生市大字熊川字北８５３番７","station":null,"distance_from_station":430,"price":301000},"geometry":{"type":"Point","coordinates":[139.336672,35.7322361]}},{"type":"Feature","properties":{"city_code":"13201","city_name":"八王子","address":"東京都　八王子市中町３－１４","station":null,"distance_from_station":400,"price":4500000},"geometry":{"type":"Point","coordinates":[139.33679,35.658635]}},{"type":"Feature","properties":{"city_code":"13218","city_name":"福生","address":"東京都　福生市大字福生字武蔵野２２６３番８","station":null,"distance_from_station":550,"price":251000},"geometry":{"type":"Point","coordinates":[139.336925,35.7416644]}},{"type":"Feature","properties":{"city_code":"13201","city_name":"八王子","address":"東京都　八王子市旭町７－８","station":null,"distance_from_station":300,"price":6100000},"geometry":{"type":"Point","coordinates":[139.33761,35.6573467]}},{"type":"Feature","properties":{"city_code":"13218","city_name":"福生","address":"東京都　福生市大字熊川字東２３３番５","station":null,"distance_from_station":850,"price":270000},"geometry":{"type":"Point","coordinates":[139.337686,35.7176686]}},{"type":"Feature","properties":{"city_code":"13303","city_name":"瑞穂","address":"東京都　西多摩郡瑞穂町大字石畑字武蔵野７５７番１６","station":null,"distance_from_station":1800,"price":212000},"geometry":{"type":"Point","coordinates":[139.338118,35.7581653]}},{"type":"Feature","properties":{"city_code":"13303","city_name":"瑞穂","address":"東京都　西多摩郡瑞穂町箱根ケ崎東松原８番５外","station":null,"distance_from_station":1100,"price":227000},"geometry":{"type":"Point","coordinates":[139.339142,35.7717367]}},{"type":"Feature","properties":{"city_code":"13303","city_name":"瑞穂","address":"東京都　西多摩郡瑞穂町南平２丁目３８番８","station":null,"distance_from_station":1200,"price":211000},"geometry":{"type":"Point","coordinates":[139.339314,35.7658211]}},{"type":"Feature","properties":{"city_code":"13201","city_name":"八王子","address":"東京都　八王子市片倉町２３９８番１外","station":null,"distance_from_station":250,"price":425000},"geometry":{"type":"Point","coordinates":[139.339512,35.6406158]}},{"type":"Feature","properties":{"city_code":"13207","city_name":"昭島","address":"東京都　昭島市拝島町５－３－３０","station":null,"distance_from_station":2000,"price":232000},"geometry":{"type":"Point","coordinates":[139.340128,35.7058511]}},{"type":"Feature","properties":{"city_code":"13207","city_name":"昭島","address":"東京都　昭島市拝島町２－１１－２３","station":null,"distance_from_station":1400,"price":261000},"geometry":{"type":"Point","coordinates":[139.34021,35.7099711]}},{"type":"Feature","properties":{"city_code":"13207","city_name":"昭島","address":"東京都　昭島市緑町５－１１－１０","station":null,"distance_from_station":1000,"price":269000},"geometry":{"type":"Point","coordinates":[139.34021,35.7149492]}},{"type":"Feature","properties":{"city_code":"13207","city_name":"昭島","address":"東京都　昭島市松原町５－１０－５","station":null,"distance_from_station":600,"price":280000},"geometry":{"type":"Point","coordinates":[139.340809,35.7176128]}},{"type":"Feature","properties":{"city_code":"13201","city_name":"八王子","address":"東京都　八王子市子安町１－２７－２４","station":null,"distance_from_station":350,"price":510000},"geometry":{"type":"Point","coordinates":[139.341159,35.6524569]}},{"type":"Feature","properties":{"city_code":"13201","city_name":"八王子","address":"東京都　八王子市片倉町６２９番１２外","station":null,"distance_from_station":600,"price":293000},"geometry":{"type":"Point","coordinates":[139.342572,35.6435436]}},{"type":"Feature","properties":{"city_code":"13207","city_name":"昭島","address":"東京都　昭島市緑町３－２３－５","station":null,"distance_from_station":1500,"price":412000},"geometry":{"type":"Point","coordinates":[139.34363,35.7091414]}},{"type":"Feature","properties":{"city_code":"13201","city_name":"八王子","address":"東京都　八王子市片倉町８０７番４","station":null,"distance_from_station":200,"price":315000},"geometry":{"type":"Point","coordinates":[139.343724,35.6406661]}},{"type":"Feature","properties":{"city_code":"13201","city_name":"八王子","address":"東京都　八王子市明神町４－２－１８","station":null,"distance_from_station":180,"price":1800000},"geometry":{"type":"Point","coordinates":[139.343827,35.6593836]}},{"type":"Feature","properties":{"city_code":"13201","city_name":"八王子","address":"東京都　八王子市左入町２８８番３","station":null,"distance_from_station":3800,"price":190000},"geometry":{"type":"Point","coordinates":[139.344269,35.6852947]}},{"type":"Feature","properties":{"city_code":"13303","city_name":"瑞穂","address":"東京都　西多摩郡瑞穂町大字箱根ケ崎字宿西４６５番４","station":null,"distance_from_station":400,"price":188000},"geometry":{"type":"Point","coordinates":[139.344991,35.7736736]}},{"type":"Feature","properties":{"city_code":"13201","city_name":"八王子","address":"東京都　八王子市打越町１４８１番５９","station":null,"distance_from_station":800,"price":293000},"geometry":{"type":"Point","coordinates":[139.346666,35.6397]}},{"type":"Feature","properties":{"city_code":"13303","city_name":"瑞穂","address":"東京都　西多摩郡瑞穂町大字箱根ケ崎字狭山２５１番３３","station":null,"distance_from_station":0,"price":372000},"geometry":{"type":"Point","coordinates":[139.347048,35.7708475]}},{"type":"Feature","properties":{"city_code":"13201","city_name":"八王子","address":"東京都　八王子市片倉町１３５７番２３","station":null,"distance_from_station":2100,"price":260000},"geometry":{"type":"Point","coordinates":[139.347145,35.6273417]}},{"type":"Feature","properties":{"city_code":"13201","city_name":"八王子","address":"東京都　八王子市片倉町９３９番９２","station":null,"distance_from_station":1600,"price":270000},"geometry":{"type":"Point","coordinates":[139.34721,35.6339536]}},{"type":"Feature","properties":{"city_code":"13209","city_name":"町田","address":"東京都　町田市小山町字参九号４３９１番２","station":null,"distance_from_station":950,"price":292000},"geometry":{"type":"Point","coordinates":[139.34819,35.6024917]}},{"type":"Feature","properties":{"city_code":"13207","city_name":"昭島","address":"東京都　昭島市美堀町５－１３－７","station":null,"distance_from_station":550,"price":267000},"geometry":{"type":"Point","coordinates":[139.348448,35.7202]}},{"type":"Feature","properties":{"city_code":"13201","city_name":"八王子","address":"東京都　八王子市明神町２－８－１６","station":null,"distance_from_station":650,"price":475000},"geometry":{"type":"Point","coordinates":[139.34861,35.6566733]}},{"type":"Feature","properties":{"city_code":"13207","city_name":"昭島","address":"東京都　昭島市緑町２－１１－１３","station":null,"distance_from_station":1400,"price":268000},"geometry":{"type":"Point","coordinates":[139.349231,35.7108114]}},{"type":"Feature","properties":{"city_code":"13201","city_name":"八王子","address":"東京都　八王子市大谷町７１４番２外","station":null,"distance_from_station":2700,"price":195000},"geometry":{"type":"Point","coordinates":[139.349939,35.6711053]}},{"type":"Feature","properties":{"city_code":"13303","city_name":"瑞穂","address":"東京都　西多摩郡瑞穂町大字箱根ケ崎字狭山１８８番６","station":null,"distance_from_station":360,"price":373000},"geometry":{"type":"Point","coordinates":[139.350362,35.7714036]}},{"type":"Feature","properties":{"city_code":"13201","city_name":"八王子","address":"東京都　八王子市打越町１３４４番２１","station":null,"distance_from_station":350,"price":305000},"geometry":{"type":"Point","coordinates":[139.350534,35.6433425]}},{"type":"Feature","properties":{"city_code":"13201","city_name":"八王子","address":"東京都　八王子市丸山町１６番４","station":null,"distance_from_station":3800,"price":215000},"geometry":{"type":"Point","coordinates":[139.351028,35.6910978]}},{"type":"Feature","properties":{"city_code":"13303","city_name":"瑞穂","address":"東京都　西多摩郡瑞穂町大字箱根ケ崎字狭山１９７番１","station":null,"distance_from_station":400,"price":213000},"geometry":{"type":"Point","coordinates":[139.351076,35.7702258]}},{"type":"Feature","properties":{"city_code":"13207","city_name":"昭島","address":"東京都　昭島市松原町２－７－１０","station":null,"distance_from_station":900,"price":320000},"geometry":{"type":"Point","coordinates":[139.351236,35.7144511]}},{"type":"Feature","properties":{"city_code":"13201","city_name":"八王子","address":"東京都　八王子市北野町５３５番２６","station":null,"distance_from_station":410,"price":350000},"geometry":{"type":"Point","coordinates":[139.351278,35.6471972]}},{"type":"Feature","properties":{"city_code":"13201","city_name":"八王子","address":"東京都　八王子市大和田町３－１７－１０","station":null,"distance_from_station":1300,"price":342000},"geometry":{"type":"Point","coordinates":[139.35161,35.6609567]}},{"type":"Feature","properties":{"city_code":"13201","city_name":"八王子","address":"東京都　八王子市北野台３－３－３","station":null,"distance_from_station":2800,"price":265000},"geometry":{"type":"Point","coordinates":[139.352116,35.6272344]}},{"type":"Feature","properties":{"city_code":"13303","city_name":"瑞穂","address":"東京都　西多摩郡瑞穂町大字箱根ケ崎字宿東２３６５番４","station":null,"distance_from_station":700,"price":212000},"geometry":{"type":"Point","coordinates":[139.353052,35.77243]}},{"type":"Feature","properties":{"city_code":"13207","city_name":"昭島","address":"東京都　昭島市美堀町４－７－４","station":null,"distance_from_station":950,"price":270000},"geometry":{"type":"Point","coordinates":[139.353311,35.7206681]}},{"type":"Feature","properties":{"city_code":"13201","city_name":"八王子","address":"東京都　八王子市宇津木町９４０番６２","station":null,"distance_from_station":2000,"price":220000},"geometry":{"type":"Point","coordinates":[139.353679,35.6844014]}},{"type":"Feature","properties":{"city_code":"13201","city_name":"八王子","address":"東京都　八王子市北野台２－２９－６","station":null,"distance_from_station":2800,"price":260000},"geometry":{"type":"Point","coordinates":[139.354656,35.6265975]}},{"type":"Feature","properties":{"city_code":"13201","city_name":"八王子","address":"東京都　八王子市大和田町４－８－８","station":null,"distance_from_station":1800,"price":360000},"geometry":{"type":"Point","coordinates":[139.354662,35.6647278]}},{"type":"Feature","properties":{"city_code":"13201","city_name":"八王子","address":"東京都　八王子市鑓水字市道１０４２番１","station":null,"distance_from_station":3900,"price":78000},"geometry":{"type":"Point","coordinates":[139.355295,35.6165436]}},{"type":"Feature","properties":{"city_code":"13303","city_name":"瑞穂","address":"東京都　西多摩郡瑞穂町大字二本木字南長田１０３４番１１","station":null,"distance_from_station":2800,"price":164000},"geometry":{"type":"Point","coordinates":[139.356572,35.7929208]}},{"type":"Feature","properties":{"city_code":"13303","city_name":"瑞穂","address":"東京都　西多摩郡瑞穂町大字石畑字二本榎２２４番４","station":null,"distance_from_station":1300,"price":205000},"geometry":{"type":"Point","coordinates":[139.356636,35.7661617]}},{"type":"Feature","properties":{"city_code":"13209","city_name":"町田","address":"東京都　町田市小山町字参参号３４７３番５","station":null,"distance_from_station":1800,"price":237000},"geometry":{"type":"Point","coordinates":[139.357802,35.5999939]}},{"type":"Feature","properties":{"city_code":"13207","city_name":"昭島","address":"東京都　昭島市大神町２－１－５","station":null,"distance_from_station":1000,"price":250000},"geometry":{"type":"Point","coordinates":[139.357898,35.7068019]}},{"type":"Feature","properties":{"city_code":"13201","city_name":"八王子","address":"東京都　八王子市平町２１３番５外","station":null,"distance_from_station":1800,"price":165000},"geometry":{"type":"Point","coordinates":[139.357914,35.6920008]}},{"type":"Feature","properties":{"city_code":"13207","city_name":"昭島","address":"東京都　昭島市美堀町２－３０－２","station":null,"distance_from_station":1400,"price":235000},"geometry":{"type":"Point","coordinates":[139.358641,35.7240917]}},{"type":"Feature","properties":{"city_code":"13201","city_name":"八王子","address":"東京都　八王子市久保山町１丁目２５番３","station":null,"distance_from_station":1300,"price":240000},"geometry":{"type":"Point","coordinates":[139.359035,35.6859222]}},{"type":"Feature","properties":{"city_code":"13201","city_name":"八王子","address":"東京都　八王子市石川町２０９６番１","station":null,"distance_from_station":410,"price":283000},"geometry":{"type":"Point","coordinates":[139.359264,35.6697906]}},{"type":"Feature","properties":{"city_code":"13201","city_name":"八王子","address":"東京都　八王子市絹ケ丘３－２８－１３","station":null,"distance_from_station":1900,"price":230000},"geometry":{"type":"Point","coordinates":[139.3594,35.6321028]}},{"type":"Feature","properties":{"city_code":"13207","city_name":"昭島","address":"東京都　昭島市昭和町５－１０－１７","station":null,"distance_from_station":0,"price":1200000},"geometry":{"type":"Point","coordinates":[139.360347,35.7126069]}},{"type":"Feature","properties":{"city_code":"13303","city_name":"瑞穂","address":"東京都　西多摩郡瑞穂町大字殿ケ谷字狭山平８８４番３","station":null,"distance_from_station":1600,"price":172000},"geometry":{"type":"Point","coordinates":[139.36054,35.7679636]}},{"type":"Feature","properties":{"city_code":"13201","city_name":"八王子","address":"東京都　八王子市絹ケ丘１－２７－２","station":null,"distance_from_station":1500,"price":285000},"geometry":{"type":"Point","coordinates":[139.36167,35.6388458]}},{"type":"Feature","properties":{"city_code":"13202","city_name":"立川","address":"東京都　立川市西砂町５丁目５３番１３","station":null,"distance_from_station":1700,"price":223000},"geometry":{"type":"Point","coordinates":[139.36231,35.7338497]}},{"type":"Feature","properties":{"city_code":"13212","city_name":"日野","address":"東京都　日野市西平山５丁目２１番３","station":null,"distance_from_station":2300,"price":284000},"geometry":{"type":"Point","coordinates":[139.36303,35.6540778]}},{"type":"Feature","properties":{"city_code":"13207","city_name":"昭島","address":"東京都　昭島市上川原町１－２０－５","station":null,"distance_from_station":1000,"price":277000},"geometry":{"type":"Point","coordinates":[139.363033,35.7066086]}},{"type":"Feature","properties":{"city_code":"13207","city_name":"昭島","address":"東京都　昭島市昭和町４－６－９","station":null,"distance_from_station":550,"price":380000},"geometry":{"type":"Point","coordinates":[139.363042,35.7101078]}},{"type":"Feature","properties":{"city_code":"13223","city_name":"武蔵村山","address":"東京都　武蔵村山市中原１丁目２６番１７","station":null,"distance_from_station":3800,"price":218000},"geometry":{"type":"Point","coordinates":[139.364271,35.7536344]}},{"type":"Feature","properties":{"city_code":"13201","city_name":"八王子","address":"東京都　八王子市石川町２５６８番１０","station":null,"distance_from_station":1100,"price":230000},"geometry":{"type":"Point","coordinates":[139.364474,35.6769186]}},{"type":"Feature","properties":{"city_code":"13223","city_name":"武蔵村山","address":"東京都　武蔵村山市岸１丁目３５番２","station":null,"distance_from_station":2300,"price":208000},"geometry":{"type":"Point","coordinates":[139.364916,35.7620758]}},{"type":"Feature","properties":{"city_code":"13303","city_name":"瑞穂","address":"東京都　西多摩郡瑞穂町大字高根字田尻３４番４","station":null,"distance_from_station":2600,"price":160000},"geometry":{"type":"Point","coordinates":[139.365614,35.7842447]}},{"type":"Feature","properties":{"city_code":"13201","city_name":"八王子","address":"東京都　八王子市長沼町７２７番１１","station":null,"distance_from_station":100,"price":335000},"geometry":{"type":"Point","coordinates":[139.36621,35.6434231]}},{"type":"Feature","properties":{"city_code":"13212","city_name":"日野","address":"東京都　日野市旭が丘６丁目３番１６","station":null,"distance_from_station":1500,"price":345000},"geometry":{"type":"Point","coordinates":[139.367082,35.6598594]}},{"type":"Feature","properties":{"city_code":"13201","city_name":"八王子","address":"東京都　八王子市長沼町４１９番１","station":null,"distance_from_station":180,"price":410000},"geometry":{"type":"Point","coordinates":[139.367173,35.6418903]}},{"type":"Feature","properties":{"city_code":"13212","city_name":"日野","address":"東京都　日野市西平山２丁目１１番３５","station":null,"distance_from_station":550,"price":317000},"geometry":{"type":"Point","coordinates":[139.369002,35.6455461]}},{"type":"Feature","properties":{"city_code":"13201","city_name":"八王子","address":"東京都　八王子市上柚木字壱壱号１０５０番３","station":null,"distance_from_station":2500,"price":222000},"geometry":{"type":"Point","coordinates":[139.36912,35.6207508]}},{"type":"Feature","properties":{"city_code":"13223","city_name":"武蔵村山","address":"東京都　武蔵村山市残堀５丁目７９番５","station":null,"distance_from_station":3500,"price":224000},"geometry":{"type":"Point","coordinates":[139.369571,35.7522944]}},{"type":"Feature","properties":{"city_code":"13207","city_name":"昭島","address":"東京都　昭島市朝日町４－１８－１０","station":null,"distance_from_station":900,"price":319000},"geometry":{"type":"Point","coordinates":[139.369659,35.7072314]}},{"type":"Feature","properties":{"city_code":"13212","city_name":"日野","address":"東京都　日野市旭が丘３－１－１０","station":null,"distance_from_station":1100,"price":371000},"geometry":{"type":"Point","coordinates":[139.370241,35.6570456]}},{"type":"Feature","properties":{"city_code":"13201","city_name":"八王子","address":"東京都　八王子市小宮町９２２番１","station":null,"distance_from_station":500,"price":350000},"geometry":{"type":"Point","coordinates":[139.370413,35.6884278]}},{"type":"Feature","properties":{"city_code":"13207","city_name":"昭島","address":"東京都　昭島市中神町１－１７－３","station":null,"distance_from_station":900,"price":270000},"geometry":{"type":"Point","coordinates":[139.370958,35.7038792]}},{"type":"Feature","properties":{"city_code":"13207","city_name":"昭島","address":"東京都　昭島市宮沢町字上ノ原４６８番７","station":null,"distance_from_station":700,"price":331000},"geometry":{"type":"Point","coordinates":[139.371431,35.7114481]}},{"type":"Feature","properties":{"city_code":"13201","city_name":"八王子","address":"東京都　八王子市上柚木字十六号１６４４番イ","station":null,"distance_from_station":2100,"price":25000},"geometry":{"type":"Point","coordinates":[139.371574,35.6258258]}},{"type":"Feature","properties":{"city_code":"13201","city_name":"八王子","address":"東京都　八王子市石川町８０１番２","station":null,"distance_from_station":650,"price":235000},"geometry":{"type":"Point","coordinates":[139.37287,35.6828042]}},{"type":"Feature","properties":{"city_code":"13201","city_name":"八王子","address":"東京都　八王子市南陽台１－１４－１０","station":null,"distance_from_station":3000,"price":260000},"geometry":{"type":"Point","coordinates":[139.373045,35.6338383]}},{"type":"Feature","properties":{"city_code":"13223","city_name":"武蔵村山","address":"東京都　武蔵村山市伊奈平６丁目８番２","station":null,"distance_from_station":2800,"price":216000},"geometry":{"type":"Point","coordinates":[139.374413,35.7430228]}},{"type":"Feature","properties":{"city_code":"13212","city_name":"日野","address":"東京都　日野市日野台４丁目２３番１５","station":null,"distance_from_station":1800,"price":303000},"geometry":{"type":"Point","coordinates":[139.374415,35.6732411]}},{"type":"Feature","properties":{"city_code":"13223","city_name":"武蔵村山","address":"東京都　武蔵村山市三ツ木１丁目５４番６","station":null,"distance_from_station":4000,"price":204000},"geometry":{"type":"Point","coordinates":[139.374912,35.75821]}},{"type":"Feature","properties":{"city_code":"13223","city_name":"武蔵村山","address":"東京都　武蔵村山市伊奈平４丁目２３番８","station":null,"distance_from_station":1500,"price":241000},"geometry":{"type":"Point","coordinates":[139.375182,35.7361953]}},{"type":"Feature","properties":{"city_code":"13207","city_name":"昭島","address":"東京都　昭島市武蔵野２－１２－１０","station":null,"distance_from_station":700,"price":289000},"geometry":{"type":"Point","coordinates":[139.375188,35.7234853]}},{"type":"Feature","properties":{"city_code":"13201","city_name":"八王子","address":"東京都　八王子市長沼町１０４番９８","station":null,"distance_from_station":1400,"price":280000},"geometry":{"type":"Point","coordinates":[139.375273,35.6407972]}},{"type":"Feature","properties":{"city_code":"13223","city_name":"武蔵村山","address":"東京都　武蔵村山市三ツ藤２丁目４３番１２","station":null,"distance_from_station":3300,"price":280000},"geometry":{"type":"Point","coordinates":[139.375446,35.7516989]}},{"type":"Feature","properties":{"city_code":"13212","city_name":"日野","address":"東京都　日野市多摩平３丁目１６番４","station":null,"distance_from_station":700,"price":430000},"geometry":{"type":"Point","coordinates":[139.375802,35.6629744]}},{"type":"Feature","properties":{"city_code":"13207","city_name":"昭島","address":"東京都　昭島市宮沢町字小ハケ５１７番１６外","station":null,"distance_from_station":800,"price":300000},"geometry":{"type":"Point","coordinates":[139.37583,35.7149567]}},{"type":"Feature","properties":{"city_code":"13223","city_name":"武蔵村山","address":"東京都　武蔵村山市伊奈平１丁目７１番１","station":null,"distance_from_station":2300,"price":262000},"geometry":{"type":"Point","coordinates":[139.37663,35.7426806]}},{"type":"Feature","properties":{"city_code":"13223","city_name":"武蔵村山","address":"東京都　武蔵村山市伊奈平２丁目７９番１外","station":null,"distance_from_station":1800,"price":305000},"geometry":{"type":"Point","coordinates":[139.377078,35.7392908]}},{"type":"Feature","properties":{"city_code":"13212","city_name":"日野","address":"東京都　日野市多摩平５丁目１５番３","station":null,"distance_from_station":1200,"price":377000},"geometry":{"type":"Point","coordinates":[139.377419,35.6685925]}},{"type":"Feature","properties":{"city_code":"13212","city_name":"日野","address":"東京都　日野市新町５丁目２４番２０外","station":null,"distance_from_station":1700,"price":267000},"geometry":{"type":"Point","coordinates":[139.377693,35.6809606]}},{"type":"Feature","properties":{"city_code":"13223","city_name":"武蔵村山","address":"東京都　武蔵村山市三ツ藤１丁目４９番１６","station":null,"distance_from_station":3600,"price":234000},"geometry":{"type":"Point","coordinates":[139.37827,35.7511794]}},{"type":"Feature","properties":{"city_code":"13223","city_name":"武蔵村山","address":"東京都　武蔵村山市三ツ木１丁目２９番６","station":null,"distance_from_station":4000,"price":204000},"geometry":{"type":"Point","coordinates":[139.378645,35.7557286]}},{"type":"Feature","properties":{"city_code":"13212","city_name":"日野","address":"東京都　日野市日野台２丁目２３番２","station":null,"distance_from_station":1300,"price":322000},"geometry":{"type":"Point","coordinates":[139.379504,35.6789725]}},{"type":"Feature","properties":{"city_code":"13212","city_name":"日野","address":"東京都　日野市多摩平１丁目３番１２","station":null,"distance_from_station":250,"price":1870000},"geometry":{"type":"Point","coordinates":[139.379867,35.661225]}},{"type":"Feature","properties":{"city_code":"13212","city_name":"日野","address":"東京都　日野市豊田３丁目１３番１１","station":null,"distance_from_station":800,"price":355000},"geometry":{"type":"Point","coordinates":[139.38037,35.6544244]}},{"type":"Feature","properties":{"city_code":"13209","city_name":"町田","address":"東京都　町田市小山町字壱壱号１６２９番２の２１","station":null,"distance_from_station":4000,"price":226000},"geometry":{"type":"Point","coordinates":[139.380511,35.5954806]}},{"type":"Feature","properties":{"city_code":"13202","city_name":"立川","address":"東京都　立川市一番町２丁目６番１４","station":null,"distance_from_station":1400,"price":245000},"geometry":{"type":"Point","coordinates":[139.380869,35.7247897]}},{"type":"Feature","properties":{"city_code":"13207","city_name":"昭島","address":"東京都　昭島市玉川町３－２３－１１","station":null,"distance_from_station":500,"price":632000},"geometry":{"type":"Point","coordinates":[139.381083,35.70409]}},{"type":"Feature","properties":{"city_code":"13202","city_name":"立川","address":"東京都　立川市一番町４丁目５０番１","station":null,"distance_from_station":1200,"price":250000},"geometry":{"type":"Point","coordinates":[139.38122,35.7313739]}},{"type":"Feature","properties":{"city_code":"13212","city_name":"日野","address":"東京都　日野市平山５丁目６番９外","station":null,"distance_from_station":350,"price":317000},"geometry":{"type":"Point","coordinates":[139.382431,35.6486006]}},{"type":"Feature","properties":{"city_code":"13212","city_name":"日野","address":"東京都　日野市豊田２丁目２０番４９","station":null,"distance_from_station":1100,"price":317000},"geometry":{"type":"Point","coordinates":[139.382461,35.6530606]}},{"type":"Feature","properties":{"city_code":"13201","city_name":"八王子","address":"東京都　八王子市南大沢２丁目１２番８","station":null,"distance_from_station":350,"price":365000},"geometry":{"type":"Point","coordinates":[139.38307,35.6126436]}},{"type":"Feature","properties":{"city_code":"13201","city_name":"八王子","address":"東京都　八王子市下柚木字三号４８４番１","station":null,"distance_from_station":1700,"price":424000},"geometry":{"type":"Point","coordinates":[139.38351,35.6274408]}},{"type":"Feature","properties":{"city_code":"13212","city_name":"日野","address":"東京都　日野市日野台１丁目１０番１１","station":null,"distance_from_station":1000,"price":295000},"geometry":{"type":"Point","coordinates":[139.38403,35.6763978]}},{"type":"Feature","properties":{"city_code":"13223","city_name":"武蔵村山","address":"東京都　武蔵村山市本町１丁目４０番５","station":null,"distance_from_station":3600,"price":222000},"geometry":{"type":"Point","coordinates":[139.384795,35.7539383]}},{"type":"Feature","properties":{"city_code":"13212","city_name":"日野","address":"東京都　日野市新町２丁目１０番５","station":null,"distance_from_station":900,"price":308000},"geometry":{"type":"Point","coordinates":[139.38561,35.6789261]}},{"type":"Feature","properties":{"city_code":"13212","city_name":"日野","address":"東京都　日野市大坂上４丁目１１番３","station":null,"distance_from_station":1400,"price":360000},"geometry":{"type":"Point","coordinates":[139.385678,35.6714306]}},{"type":"Feature","properties":{"city_code":"13212","city_name":"日野","address":"東京都　日野市平山５丁目１番７外","station":null,"distance_from_station":600,"price":418000},"geometry":{"type":"Point","coordinates":[139.385702,35.6477969]}},{"type":"Feature","properties":{"city_code":"13223","city_name":"武蔵村山","address":"東京都　武蔵村山市本町１丁目６番３","station":null,"distance_from_station":3600,"price":367000},"geometry":{"type":"Point","coordinates":[139.386086,35.7556408]}},{"type":"Feature","properties":{"city_code":"13207","city_name":"昭島","address":"東京都　昭島市郷地町１－１０－２０","station":null,"distance_from_station":1100,"price":292000},"geometry":{"type":"Point","coordinates":[139.386216,35.6988656]}},{"type":"Feature","properties":{"city_code":"13202","city_name":"立川","address":"東京都　立川市一番町４丁目１番２","station":null,"distance_from_station":750,"price":376000},"geometry":{"type":"Point","coordinates":[139.387149,35.7265589]}},{"type":"Feature","properties":{"city_code":"13212","city_name":"日野","address":"東京都　日野市平山１丁目１３番３","station":null,"distance_from_station":1000,"price":292000},"geometry":{"type":"Point","coordinates":[139.388185,35.6445142]}},{"type":"Feature","properties":{"city_code":"13202","city_name":"立川","address":"東京都　立川市上砂町４丁目４６番２７","station":null,"distance_from_station":400,"price":285000},"geometry":{"type":"Point","coordinates":[139.389455,35.7280242]}},{"type":"Feature","properties":{"city_code":"13209","city_name":"町田","address":"東京都　町田市小山町字参号３４２番","station":null,"distance_from_station":3300,"price":90000},"geometry":{"type":"Point","coordinates":[139.389524,35.5915158]}},{"type":"Feature","properties":{"city_code":"13207","city_name":"昭島","address":"東京都　昭島市東町４－１２－３","station":null,"distance_from_station":600,"price":341000},"geometry":{"type":"Point","coordinates":[139.389646,35.7019017]}},{"type":"Feature","properties":{"city_code":"13202","city_name":"立川","address":"東京都　立川市富士見町３－１４－１","station":null,"distance_from_station":2500,"price":284000},"geometry":{"type":"Point","coordinates":[139.389986,35.6963247]}},{"type":"Feature","properties":{"city_code":"13223","city_name":"武蔵村山","address":"東京都　武蔵村山市中央４丁目１２番２","station":null,"distance_from_station":4800,"price":213000},"geometry":{"type":"Point","coordinates":[139.390001,35.7570044]}},{"type":"Feature","properties":{"city_code":"13212","city_name":"日野","address":"東京都　日野市東豊田４丁目１９番１５","station":null,"distance_from_station":1200,"price":347000},"geometry":{"type":"Point","coordinates":[139.390136,35.6649617]}},{"type":"Feature","properties":{"city_code":"13209","city_name":"町田","address":"東京都　町田市小山町字壱号５８番５","station":null,"distance_from_station":2200,"price":241000},"geometry":{"type":"Point","coordinates":[139.390275,35.5882894]}},{"type":"Feature","properties":{"city_code":"13202","city_name":"立川","address":"東京都　立川市上砂町３丁目３５番２９","station":null,"distance_from_station":830,"price":244000},"geometry":{"type":"Point","coordinates":[139.39037,35.7230928]}},{"type":"Feature","properties":{"city_code":"13201","city_name":"八王子","address":"東京都　八王子市松木字二号３０３番外","station":null,"distance_from_station":1000,"price":450000},"geometry":{"type":"Point","coordinates":[139.391464,35.6226108]}},{"type":"Feature","properties":{"city_code":"13212","city_name":"日野","address":"東京都　日野市南平６丁目２０番１５","station":null,"distance_from_station":200,"price":348000},"geometry":{"type":"Point","coordinates":[139.39169,35.6560458]}},{"type":"Feature","properties":{"city_code":"13212","city_name":"日野","address":"東京都　日野市南平９丁目２１番４","station":null,"distance_from_station":850,"price":306000},"geometry":{"type":"Point","coordinates":[139.392021,35.6493208]}},{"type":"Feature","properties":{"city_code":"13212","city_name":"日野","address":"東京都　日野市栄町２丁目１４番４","station":null,"distance_from_station":500,"price":322000},"geometry":{"type":"Point","coordinates":[139.392169,35.6828925]}},{"type":"Feature","properties":{"city_code":"13201","city_name":"八王子","address":"東京都　八王子市越野字壱号１１１番４","station":null,"distance_from_station":1100,"price":370000},"geometry":{"type":"Point","coordinates":[139.392351,35.6287564]}},{"type":"Feature","properties":{"city_code":"13209","city_name":"町田","address":"東京都　町田市常盤町字弐弐号３０８３番１２","station":null,"distance_from_station":2500,"price":220000},"geometry":{"type":"Point","coordinates":[139.392369,35.5915369]}},{"type":"Feature","properties":{"city_code":"13223","city_name":"武蔵村山","address":"東京都　武蔵村山市学園１丁目１７番１","station":null,"distance_from_station":2800,"price":236000},"geometry":{"type":"Point","coordinates":[139.392984,35.7486158]}},{"type":"Feature","properties":{"city_code":"13212","city_name":"日野","address":"東京都　日野市神明３丁目５番８","station":null,"distance_from_station":800,"price":375000},"geometry":{"type":"Point","coordinates":[139.393439,35.6734869]}},{"type":"Feature","properties":{"city_code":"13202","city_name":"立川","address":"東京都　立川市富士見町６－６３－２６","station":null,"distance_from_station":2500,"price":303000},"geometry":{"type":"Point","coordinates":[139.393753,35.6906075]}},{"type":"Feature","properties":{"city_code":"13223","city_name":"武蔵村山","address":"東京都　武蔵村山市中央２丁目１２１番２","station":null,"distance_from_station":3500,"price":219000},"geometry":{"type":"Point","coordinates":[139.394633,35.7510128]}},{"type":"Feature","properties":{"city_code":"13209","city_name":"町田","address":"東京都　町田市常盤町字弐参号３２５３番４","station":null,"distance_from_station":2000,"price":234000},"geometry":{"type":"Point","coordinates":[139.396276,35.5862767]}},{"type":"Feature","properties":{"city_code":"13209","city_name":"町田","address":"東京都　町田市上小山田町字壱参号１８７２番","station":null,"distance_from_station":4300,"price":28000},"geometry":{"type":"Point","coordinates":[139.396536,35.60294]}},{"type":"Feature","properties":{"city_code":"13212","city_name":"日野","address":"東京都　日野市南平５丁目２１番２外","station":null,"distance_from_station":1200,"price":304000},"geometry":{"type":"Point","coordinates":[139.397448,35.6603161]}},{"type":"Feature","properties":{"city_code":"13212","city_name":"日野","address":"東京都　日野市日野本町２丁目１８番１１","station":null,"distance_from_station":350,"price":670000},"geometry":{"type":"Point","coordinates":[139.397709,35.6787439]}},{"type":"Feature","properties":{"city_code":"13223","city_name":"武蔵村山","address":"東京都　武蔵村山市大南１丁目１６０番１","station":null,"distance_from_station":900,"price":279000},"geometry":{"type":"Point","coordinates":[139.397724,35.7354925]}},{"type":"Feature","properties":{"city_code":"13212","city_name":"日野","address":"東京都　日野市南平２丁目５１番２","station":null,"distance_from_station":800,"price":286000},"geometry":{"type":"Point","coordinates":[139.398141,35.6551008]}},{"type":"Feature","properties":{"city_code":"13223","city_name":"武蔵村山","address":"東京都　武蔵村山市中藤３丁目３７番３２","station":null,"distance_from_station":4400,"price":207000},"geometry":{"type":"Point","coordinates":[139.39818,35.7588428]}},{"type":"Feature","properties":{"city_code":"13212","city_name":"日野","address":"東京都　日野市日野本町５丁目２４番１３","station":null,"distance_from_station":900,"price":350000},"geometry":{"type":"Point","coordinates":[139.398703,35.6838467]}},{"type":"Feature","properties":{"city_code":"13223","city_name":"武蔵村山","address":"東京都　武蔵村山市神明１丁目８８番４","station":null,"distance_from_station":3200,"price":214000},"geometry":{"type":"Point","coordinates":[139.39891,35.7499419]}},{"type":"Feature","properties":{"city_code":"13223","city_name":"武蔵村山","address":"東京都　武蔵村山市学園４丁目１５番３","station":null,"distance_from_station":1900,"price":242000},"geometry":{"type":"Point","coordinates":[139.398924,35.7430661]}},{"type":"Feature","properties":{"city_code":"13209","city_name":"町田","address":"東京都　町田市常盤町字弐四号３５１７番","station":null,"distance_from_station":2000,"price":234000},"geometry":{"type":"Point","coordinates":[139.400757,35.5840636]}},{"type":"Feature","properties":{"city_code":"13212","city_name":"日野","address":"東京都　日野市日野本町７丁目８番２外","station":null,"distance_from_station":1000,"price":328000},"geometry":{"type":"Point","coordinates":[139.401578,35.6787786]}},{"type":"Feature","properties":{"city_code":"13223","city_name":"武蔵村山","address":"東京都　武蔵村山市大南２丁目６８番９内","station":null,"distance_from_station":1600,"price":257000},"geometry":{"type":"Point","coordinates":[139.402986,35.7385911]}},{"type":"Feature","properties":{"city_code":"13202","city_name":"立川","address":"東京都　立川市富士見町２－１３－８","station":null,"distance_from_station":1000,"price":410000},"geometry":{"type":"Point","coordinates":[139.403087,35.6993756]}},{"type":"Feature","properties":{"city_code":"13202","city_name":"立川","address":"東京都　立川市柴崎町１－１１－８","station":null,"distance_from_station":1200,"price":468000},"geometry":{"type":"Point","coordinates":[139.403221,35.6928719]}},{"type":"Feature","properties":{"city_code":"13212","city_name":"日野","address":"東京都　日野市大字日野４１６番２外","station":null,"distance_from_station":1200,"price":317000},"geometry":{"type":"Point","coordinates":[139.40329,35.6739472]}},{"type":"Feature","properties":{"city_code":"13202","city_name":"立川","address":"東京都　立川市砂川町７丁目５６番６９外","station":null,"distance_from_station":1600,"price":273000},"geometry":{"type":"Point","coordinates":[139.403838,35.7332553]}},{"type":"Feature","properties":{"city_code":"13223","city_name":"武蔵村山","address":"東京都　武蔵村山市学園３丁目５０番１外","station":null,"distance_from_station":2800,"price":375000},"geometry":{"type":"Point","coordinates":[139.40448,35.7465228]}},{"type":"Feature","properties":{"city_code":"13209","city_name":"町田","address":"東京都　町田市常盤町字弐五号３６０３番２","station":null,"distance_from_station":2100,"price":248000},"geometry":{"type":"Point","coordinates":[139.404866,35.5824686]}},{"type":"Feature","properties":{"city_code":"13223","city_name":"武蔵村山","address":"東京都　武蔵村山市神明３丁目１１６番２外","station":null,"distance_from_station":3000,"price":215000},"geometry":{"type":"Point","coordinates":[139.404943,35.7513869]}},{"type":"Feature","properties":{"city_code":"13202","city_name":"立川","address":"東京都　立川市柴崎町４－１５－１０","station":null,"distance_from_station":1300,"price":394000},"geometry":{"type":"Point","coordinates":[139.405076,35.6907069]}},{"type":"Feature","properties":{"city_code":"13212","city_name":"日野","address":"東京都　日野市上田１８９番３外","station":null,"distance_from_station":1800,"price":265000},"geometry":{"type":"Point","coordinates":[139.405101,35.6676181]}},{"type":"Feature","properties":{"city_code":"13202","city_name":"立川","address":"東京都　立川市砂川町１丁目５８番３","station":null,"distance_from_station":4200,"price":237000},"geometry":{"type":"Point","coordinates":[139.406045,35.7228522]}},{"type":"Feature","properties":{"city_code":"13209","city_name":"町田","address":"東京都　町田市上小山田町字２号１６３番１外","station":null,"distance_from_station":7600,"price":236000},"geometry":{"type":"Point","coordinates":[139.406617,35.5944756]}},{"type":"Feature","properties":{"city_code":"13201","city_name":"八王子","address":"東京都　八王子市堀之内字弐九号２５０７番２８","station":null,"distance_from_station":700,"price":372000},"geometry":{"type":"Point","coordinates":[139.406758,35.6266414]}},{"type":"Feature","properties":{"city_code":"13212","city_name":"日野","address":"東京都　日野市南平１５６４番２４６","station":null,"distance_from_station":1300,"price":327000},"geometry":{"type":"Point","coordinates":[139.406794,35.6563894]}},{"type":"Feature","properties":{"city_code":"13201","city_name":"八王子","address":"東京都　八王子市堀之内字壱号１５番３","station":null,"distance_from_station":1100,"price":344000},"geometry":{"type":"Point","coordinates":[139.406948,35.6313372]}},{"type":"Feature","properties":{"city_code":"13223","city_name":"武蔵村山","address":"東京都　武蔵村山市神明２丁目１１６番６","station":null,"distance_from_station":3100,"price":224000},"geometry":{"type":"Point","coordinates":[139.407309,35.7555214]}},{"type":"Feature","properties":{"city_code":"13224","city_name":"多摩","address":"東京都　多摩市唐木田１丁目４６番１４","station":null,"distance_from_station":400,"price":445000},"geometry":{"type":"Point","coordinates":[139.407404,35.6149806]}},{"type":"Feature","properties":{"city_code":"13212","city_name":"日野","address":"東京都　日野市程久保２丁目１５番３０外","station":null,"distance_from_station":450,"price":303000},"geometry":{"type":"Point","coordinates":[139.40799,35.6491306]}},{"type":"Feature","properties":{"city_code":"13202","city_name":"立川","address":"東京都　立川市曙町１－２４－１１","station":null,"distance_from_station":400,"price":2440000},"geometry":{"type":"Point","coordinates":[139.40883,35.7004172]}},{"type":"Feature","properties":{"city_code":"13212","city_name":"日野","address":"東京都　日野市大字日野１１０９番４外","station":null,"distance_from_station":1600,"price":302000},"geometry":{"type":"Point","coordinates":[139.409785,35.6799578]}},{"type":"Feature","properties":{"city_code":"13223","city_name":"武蔵村山","address":"東京都　武蔵村山市大南４丁目２６番５","station":null,"distance_from_station":900,"price":267000},"geometry":{"type":"Point","coordinates":[139.40988,35.7326842]}},{"type":"Feature","properties":{"city_code":"13209","city_name":"町田","address":"東京都　町田市忠生４丁目５番２４","station":null,"distance_from_station":2100,"price":307000},"geometry":{"type":"Point","coordinates":[139.410495,35.5802317]}},{"type":"Feature","properties":{"city_code":"13212","city_name":"日野","address":"東京都　日野市大字万願寺２５０番２外","station":null,"distance_from_station":900,"price":315000},"geometry":{"type":"Point","coordinates":[139.4113,35.6688747]}},{"type":"Feature","properties":{"city_code":"13212","city_name":"日野","address":"東京都　日野市程久保１丁目１９番６","station":null,"distance_from_station":1100,"price":274000},"geometry":{"type":"Point","coordinates":[139.411592,35.6539239]}},{"type":"Feature","properties":{"city_code":"13202","city_name":"立川","address":"東京都　立川市柏町４丁目３９番１３","station":null,"distance_from_station":800,"price":310000},"geometry":{"type":"Point","coordinates":[139.412096,35.7290069]}},{"type":"Feature","properties":{"city_code":"13212","city_name":"日野","address":"東京都　日野市高幡３番３","station":null,"distance_from_station":70,"price":1060000},"geometry":{"type":"Point","coordinates":[139.41222,35.6620214]}},{"type":"Feature","properties":{"city_code":"13202","city_name":"立川","address":"東京都　立川市柴崎町３－１２－１５","station":null,"distance_from_station":600,"price":650000},"geometry":{"type":"Point","coordinates":[139.412952,35.6934067]}},{"type":"Feature","properties":{"city_code":"13220","city_name":"東大和","address":"東京都　東大和市芋窪１丁目１９９８番１９","station":null,"distance_from_station":3500,"price":215000},"geometry":{"type":"Point","coordinates":[139.41362,35.7582919]}},{"type":"Feature","properties":{"city_code":"13212","city_name":"日野","address":"東京都　日野市大字日野７７７３番１６２","station":null,"distance_from_station":2100,"price":276000},"geometry":{"type":"Point","coordinates":[139.413784,35.6788092]}},{"type":"Feature","properties":{"city_code":"13209","city_name":"町田","address":"東京都　町田市忠生３丁目２０番９","station":null,"distance_from_station":2500,"price":295000},"geometry":{"type":"Point","coordinates":[139.41394,35.5788939]}},{"type":"Feature","properties":{"city_code":"13202","city_name":"立川","address":"東京都　立川市錦町５－１６－７","station":null,"distance_from_station":1400,"price":399000},"geometry":{"type":"Point","coordinates":[139.414008,35.6887561]}},{"type":"Feature","properties":{"city_code":"13202","city_name":"立川","address":"東京都　立川市柏町３丁目３２番１８","station":null,"distance_from_station":1200,"price":302000},"geometry":{"type":"Point","coordinates":[139.414047,35.7243708]}},{"type":"Feature","properties":{"city_code":"13220","city_name":"東大和","address":"東京都　東大和市上北台３丁目４４５番１１","station":null,"distance_from_station":1300,"price":316000},"geometry":{"type":"Point","coordinates":[139.414582,35.7419214]}},{"type":"Feature","properties":{"city_code":"13224","city_name":"多摩","address":"東京都　多摩市鶴牧２丁目２１番１７外","station":null,"distance_from_station":500,"price":680000},"geometry":{"type":"Point","coordinates":[139.41467,35.6187097]}},{"type":"Feature","properties":{"city_code":"13202","city_name":"立川","address":"東京都　立川市曙町２－１３－１","station":null,"distance_from_station":0,"price":7820000},"geometry":{"type":"Point","coordinates":[139.414738,35.6986789]}},{"type":"Feature","properties":{"city_code":"13202","city_name":"立川","address":"東京都　立川市錦町２－１－２","station":null,"distance_from_station":250,"price":3640000},"geometry":{"type":"Point","coordinates":[139.414959,35.6961992]}},{"type":"Feature","properties":{"city_code":"13209","city_name":"町田","address":"東京都　町田市図師町字１号８４番８４","station":null,"distance_from_station":3000,"price":248000},"geometry":{"type":"Point","coordinates":[139.415016,35.5858806]}},{"type":"Feature","properties":{"city_code":"13220","city_name":"東大和","address":"東京都　東大和市立野２丁目８３１番３","station":null,"distance_from_station":1400,"price":450000},"geometry":{"type":"Point","coordinates":[139.41613,35.7439989]}},{"type":"Feature","properties":{"city_code":"13202","city_name":"立川","address":"東京都　立川市曙町２－１４－２０","station":null,"distance_from_station":400,"price":2470000},"geometry":{"type":"Point","coordinates":[139.416135,35.6997394]}},{"type":"Feature","properties":{"city_code":"13209","city_name":"町田","address":"東京都　町田市木曽町字拾四号１８８０番１４","station":null,"distance_from_station":1200,"price":305000},"geometry":{"type":"Point","coordinates":[139.417269,35.5655017]}},{"type":"Feature","properties":{"city_code":"13202","city_name":"立川","address":"東京都　立川市錦町６－９－２３","station":null,"distance_from_station":1500,"price":445000},"geometry":{"type":"Point","coordinates":[139.417373,35.6886247]}},{"type":"Feature","properties":{"city_code":"13202","city_name":"立川","address":"東京都　立川市柏町４丁目６３番１２","station":null,"distance_from_station":150,"price":500000},"geometry":{"type":"Point","coordinates":[139.417753,35.730635]}},{"type":"Feature","properties":{"city_code":"13212","city_name":"日野","address":"東京都　日野市大字新井８０３番１２","station":null,"distance_from_station":1000,"price":296000},"geometry":{"type":"Point","coordinates":[139.420094,35.6654439]}},{"type":"Feature","properties":{"city_code":"13209","city_name":"町田","address":"東京都　町田市忠生２丁目２８番５","station":null,"distance_from_station":3100,"price":371000},"geometry":{"type":"Point","coordinates":[139.420381,35.5782433]}},{"type":"Feature","properties":{"city_code":"13202","city_name":"立川","address":"東京都　立川市幸町１丁目１８番１","station":null,"distance_from_station":2600,"price":326000},"geometry":{"type":"Point","coordinates":[139.420438,35.7192644]}},{"type":"Feature","properties":{"city_code":"13202","city_name":"立川","address":"東京都　立川市高松町２－１２－１４","station":null,"distance_from_station":1200,"price":412000},"geometry":{"type":"Point","coordinates":[139.420441,35.7072272]}},{"type":"Feature","properties":{"city_code":"13220","city_name":"東大和","address":"東京都　東大和市蔵敷２丁目５０８番４","station":null,"distance_from_station":3000,"price":237000},"geometry":{"type":"Point","coordinates":[139.420614,35.7520925]}},{"type":"Feature","properties":{"city_code":"13202","city_name":"立川","address":"東京都　立川市幸町６丁目１５番４外","station":null,"distance_from_station":550,"price":336000},"geometry":{"type":"Point","coordinates":[139.420848,35.7294492]}},{"type":"Feature","properties":{"city_code":"13209","city_name":"町田","address":"東京都　町田市木曽町字壱弐号１５９５番６","station":null,"distance_from_station":1500,"price":305000},"geometry":{"type":"Point","coordinates":[139.421631,35.5676058]}},{"type":"Feature","properties":{"city_code":"13220","city_name":"東大和","address":"東京都　東大和市立野１丁目１０２０番２５","station":null,"distance_from_station":2000,"price":262000},"geometry":{"type":"Point","coordinates":[139.422312,35.74522]}},{"type":"Feature","properties":{"city_code":"13220","city_name":"東大和","address":"東京都　東大和市立野３丁目５８０番１外","station":null,"distance_from_station":1300,"price":340000},"geometry":{"type":"Point","coordinates":[139.422561,35.7393153]}},{"type":"Feature","properties":{"city_code":"13212","city_name":"日野","address":"東京都　日野市三沢２丁目４０番９外","station":null,"distance_from_station":1100,"price":306000},"geometry":{"type":"Point","coordinates":[139.42258,35.6562658]}},{"type":"Feature","properties":{"city_code":"13202","city_name":"立川","address":"東京都　立川市栄町４丁目１８番８","station":null,"distance_from_station":1900,"price":630000},"geometry":{"type":"Point","coordinates":[139.423237,35.7120942]}},{"type":"Feature","properties":{"city_code":"13220","city_name":"東大和","address":"東京都　東大和市奈良橋１丁目３６２番９","station":null,"distance_from_station":2200,"price":227000},"geometry":{"type":"Point","coordinates":[139.424139,35.7550264]}},{"type":"Feature","properties":{"city_code":"13209","city_name":"町田","address":"東京都　町田市忠生２丁目１５番８６","station":null,"distance_from_station":3500,"price":273000},"geometry":{"type":"Point","coordinates":[139.42485,35.5770706]}},{"type":"Feature","properties":{"city_code":"13202","city_name":"立川","address":"東京都　立川市曙町３－３１－１５","station":null,"distance_from_station":1300,"price":381000},"geometry":{"type":"Point","coordinates":[139.425038,35.7030194]}},{"type":"Feature","properties":{"city_code":"13202","city_name":"立川","address":"東京都　立川市栄町４丁目３８番８","station":null,"distance_from_station":2100,"price":336000},"geometry":{"type":"Point","coordinates":[139.425452,35.7122239]}},{"type":"Feature","properties":{"city_code":"13215","city_name":"国立","address":"東京都　国立市大字青柳字甲州道中北５４２番６","station":null,"distance_from_station":750,"price":365000},"geometry":{"type":"Point","coordinates":[139.425914,35.6844717]}},{"type":"Feature","properties":{"city_code":"13209","city_name":"町田","address":"東京都　町田市図師町字八号１６２９番３１","station":null,"distance_from_station":3600,"price":252000},"geometry":{"type":"Point","coordinates":[139.426378,35.5823003]}},{"type":"Feature","properties":{"city_code":"13224","city_name":"多摩","address":"東京都　多摩市愛宕４丁目１８番２５外","station":null,"distance_from_station":220,"price":960000},"geometry":{"type":"Point","coordinates":[139.426424,35.6276211]}},{"type":"Feature","properties":{"city_code":"13220","city_name":"東大和","address":"東京都　東大和市南街３丁目４１番７","station":null,"distance_from_station":1000,"price":326000},"geometry":{"type":"Point","coordinates":[139.427019,35.7388403]}},{"type":"Feature","properties":{"city_code":"13224","city_name":"多摩","address":"東京都　多摩市落合６丁目１３番１８","station":null,"distance_from_station":2100,"price":400000},"geometry":{"type":"Point","coordinates":[139.42702,35.6097606]}},{"type":"Feature","properties":{"city_code":"13202","city_name":"立川","address":"東京都　立川市羽衣町３－６－１２","station":null,"distance_from_station":600,"price":376000},"geometry":{"type":"Point","coordinates":[139.427461,35.6906461]}},{"type":"Feature","properties":{"city_code":"13224","city_name":"多摩","address":"東京都　多摩市落合３丁目１１番１１","station":null,"distance_from_station":1300,"price":471000},"geometry":{"type":"Point","coordinates":[139.427559,35.6178397]}},{"type":"Feature","properties":{"city_code":"13224","city_name":"多摩","address":"東京都　多摩市大字和田字壱〇号９５８番７","station":null,"distance_from_station":2800,"price":290000},"geometry":{"type":"Point","coordinates":[139.427569,35.6406633]}},{"type":"Feature","properties":{"city_code":"13202","city_name":"立川","address":"東京都　立川市栄町５丁目５４番２","station":null,"distance_from_station":2600,"price":320000},"geometry":{"type":"Point","coordinates":[139.428192,35.7170853]}},{"type":"Feature","properties":{"city_code":"13202","city_name":"立川","address":"東京都　立川市羽衣町２－２４－５","station":null,"distance_from_station":600,"price":410000},"geometry":{"type":"Point","coordinates":[139.428293,35.6946944]}},{"type":"Feature","properties":{"city_code":"13220","city_name":"東大和","address":"東京都　東大和市奈良橋５丁目７９１番１０","station":null,"distance_from_station":2100,"price":247000},"geometry":{"type":"Point","coordinates":[139.428367,35.7489433]}},{"type":"Feature","properties":{"city_code":"13202","city_name":"立川","address":"東京都　立川市栄町２丁目１９番４６","station":null,"distance_from_station":2200,"price":312000},"geometry":{"type":"Point","coordinates":[139.429722,35.7095342]}},{"type":"Feature","properties":{"city_code":"13202","city_name":"立川","address":"東京都　立川市幸町４丁目２６番７","station":null,"distance_from_station":1400,"price":317000},"geometry":{"type":"Point","coordinates":[139.430619,35.7236428]}},{"type":"Feature","properties":{"city_code":"13224","city_name":"多摩","address":"東京都　多摩市大字和田１３９番１","station":null,"distance_from_station":2000,"price":382000},"geometry":{"type":"Point","coordinates":[139.430944,35.6446358]}},{"type":"Feature","properties":{"city_code":"13224","city_name":"多摩","address":"東京都　多摩市大字和田字六号５３１番３","station":null,"distance_from_station":1800,"price":415000},"geometry":{"type":"Point","coordinates":[139.431119,35.6370731]}},{"type":"Feature","properties":{"city_code":"13215","city_name":"国立","address":"東京都　国立市富士見台４丁目１０番４","station":null,"distance_from_station":90,"price":900000},"geometry":{"type":"Point","coordinates":[139.431579,35.6857669]}},{"type":"Feature","properties":{"city_code":"13215","city_name":"国立","address":"東京都　国立市西２丁目１４番２６","station":null,"distance_from_station":1500,"price":520000},"geometry":{"type":"Point","coordinates":[139.431767,35.6944647]}},{"type":"Feature","properties":{"city_code":"13215","city_name":"国立","address":"東京都　国立市泉１丁目１番２","station":null,"distance_from_station":1500,"price":500000},"geometry":{"type":"Point","coordinates":[139.432254,35.6753908]}},{"type":"Feature","properties":{"city_code":"13220","city_name":"東大和","address":"東京都　東大和市湖畔３丁目９７２番１３","station":null,"distance_from_station":1200,"price":244000},"geometry":{"type":"Point","coordinates":[139.432789,35.7581522]}},{"type":"Feature","properties":{"city_code":"13220","city_name":"東大和","address":"東京都　東大和市南街５丁目７３番２","station":null,"distance_from_station":300,"price":335000},"geometry":{"type":"Point","coordinates":[139.43296,35.7351642]}},{"type":"Feature","properties":{"city_code":"13220","city_name":"東大和","address":"東京都　東大和市中央１丁目５３７番１５","station":null,"distance_from_station":1500,"price":278000},"geometry":{"type":"Point","coordinates":[139.433053,35.7448978]}},{"type":"Feature","properties":{"city_code":"13215","city_name":"国立","address":"東京都　国立市富士見台３丁目３５番７","station":null,"distance_from_station":60,"price":550000},"geometry":{"type":"Point","coordinates":[139.43314,35.6851231]}},{"type":"Feature","properties":{"city_code":"13215","city_name":"国立","address":"東京都　国立市西１丁目７番５７","station":null,"distance_from_station":1300,"price":510000},"geometry":{"type":"Point","coordinates":[139.433185,35.6980558]}},{"type":"Feature","properties":{"city_code":"13215","city_name":"国立","address":"東京都　国立市大字谷保字栗原６１９５番５","station":null,"distance_from_station":650,"price":340000},"geometry":{"type":"Point","coordinates":[139.433211,35.6802775]}},{"type":"Feature","properties":{"city_code":"13214","city_name":"国分寺","address":"東京都　国分寺市西町４丁目２５番５１","station":null,"distance_from_station":2500,"price":340000},"geometry":{"type":"Point","coordinates":[139.433228,35.7140553]}},{"type":"Feature","properties":{"city_code":"13220","city_name":"東大和","address":"東京都　東大和市南街１丁目３３番４外","station":null,"distance_from_station":900,"price":317000},"geometry":{"type":"Point","coordinates":[139.433445,35.7401533]}},{"type":"Feature","properties":{"city_code":"13224","city_name":"多摩","address":"東京都　多摩市大字和田字弐壱号１８８０番６","station":null,"distance_from_station":1600,"price":320000},"geometry":{"type":"Point","coordinates":[139.433471,35.64643]}},{"type":"Feature","properties":{"city_code":"13212","city_name":"日野","address":"東京都　日野市百草１５９番４","station":null,"distance_from_station":350,"price":365000},"geometry":{"type":"Point","coordinates":[139.433586,35.6578372]}},{"type":"Feature","properties":{"city_code":"13224","city_name":"多摩","address":"東京都　多摩市南野２丁目７番３","station":null,"distance_from_station":2400,"price":388000},"geometry":{"type":"Point","coordinates":[139.433625,35.6097142]}},{"type":"Feature","properties":{"city_code":"13209","city_name":"町田","address":"東京都　町田市森野４－１４－１７","station":null,"distance_from_station":1800,"price":381000},"geometry":{"type":"Point","coordinates":[139.433743,35.5556692]}},{"type":"Feature","properties":{"city_code":"13224","city_name":"多摩","address":"東京都　多摩市乞田８３８番１","station":null,"distance_from_station":950,"price":450000},"geometry":{"type":"Point","coordinates":[139.433797,35.6309022]}},{"type":"Feature","properties":{"city_code":"13209","city_name":"町田","address":"東京都　町田市本町田字壱弐号１７８６番５６外","station":null,"distance_from_station":2200,"price":311000},"geometry":{"type":"Point","coordinates":[139.434017,35.5593156]}},{"type":"Feature","properties":{"city_code":"13220","city_name":"東大和","address":"東京都　東大和市高木３丁目２６８番９","station":null,"distance_from_station":1300,"price":255000},"geometry":{"type":"Point","coordinates":[139.434536,35.7507661]}},{"type":"Feature","properties":{"city_code":"13220","city_name":"東大和","address":"東京都　東大和市南街５丁目９６番７","station":null,"distance_from_station":170,"price":928000},"geometry":{"type":"Point","coordinates":[139.434674,35.7346172]}},{"type":"Feature","properties":{"city_code":"13211","city_name":"小平","address":"東京都　小平市小川町１丁目４０６番５","station":null,"distance_from_station":550,"price":418000},"geometry":{"type":"Point","coordinates":[139.434754,35.7297833]}},{"type":"Feature","properties":{"city_code":"13209","city_name":"町田","address":"東京都　町田市森野５－２４－１６","station":null,"distance_from_station":1400,"price":386000},"geometry":{"type":"Point","coordinates":[139.434765,35.551455]}},{"type":"Feature","properties":{"city_code":"13211","city_name":"小平","address":"東京都　小平市小川町１丁目４１６番２４","station":null,"distance_from_station":600,"price":319000},"geometry":{"type":"Point","coordinates":[139.43524,35.7286953]}},{"type":"Feature","properties":{"city_code":"13215","city_name":"国立","address":"東京都　国立市北２丁目３３番２０","station":null,"distance_from_station":1100,"price":450000},"geometry":{"type":"Point","coordinates":[139.436093,35.6997669]}},{"type":"Feature","properties":{"city_code":"13209","city_name":"町田","address":"東京都　町田市山崎町字四号７８１番９","station":null,"distance_from_station":6000,"price":257000},"geometry":{"type":"Point","coordinates":[139.436294,35.581185]}},{"type":"Feature","properties":{"city_code":"13220","city_name":"東大和","address":"東京都　東大和市仲原３丁目１２番５","station":null,"distance_from_station":1700,"price":301000},"geometry":{"type":"Point","coordinates":[139.438144,35.7445781]}},{"type":"Feature","properties":{"city_code":"13220","city_name":"東大和","address":"東京都　東大和市向原２丁目７７８番１３","station":null,"distance_from_station":1200,"price":308000},"geometry":{"type":"Point","coordinates":[139.438835,35.7411958]}},{"type":"Feature","properties":{"city_code":"13220","city_name":"東大和","address":"東京都　東大和市狭山４丁目１４４８番８","station":null,"distance_from_station":850,"price":258000},"geometry":{"type":"Point","coordinates":[139.439163,35.7521828]}},{"type":"Feature","properties":{"city_code":"13209","city_name":"町田","address":"東京都　町田市本町田字壱七号２１４１番５４","station":null,"distance_from_station":2800,"price":285000},"geometry":{"type":"Point","coordinates":[139.439202,35.5611453]}},{"type":"Feature","properties":{"city_code":"13209","city_name":"町田","address":"東京都　町田市旭町１－２１－２３","station":null,"distance_from_station":1600,"price":405000},"geometry":{"type":"Point","coordinates":[139.439368,35.5561672]}},{"type":"Feature","properties":{"city_code":"13220","city_name":"東大和","address":"東京都　東大和市向原５丁目１１２９番１１","station":null,"distance_from_station":800,"price":324000},"geometry":{"type":"Point","coordinates":[139.439755,35.73697]}},{"type":"Feature","properties":{"city_code":"13215","city_name":"国立","address":"東京都　国立市大字谷保字下モ峰下７１５１番１０","station":null,"distance_from_station":700,"price":360000},"geometry":{"type":"Point","coordinates":[139.440036,35.6827256]}},{"type":"Feature","properties":{"city_code":"13224","city_name":"多摩","address":"東京都　多摩市桜ケ丘３丁目３３番８","station":null,"distance_from_station":2000,"price":407000},"geometry":{"type":"Point","coordinates":[139.440141,35.6402261]}},{"type":"Feature","properties":{"city_code":"13209","city_name":"町田","address":"東京都　町田市森野２－１９－７","station":null,"distance_from_station":800,"price":593000},"geometry":{"type":"Point","coordinates":[139.440574,35.5492844]}},{"type":"Feature","properties":{"city_code":"13224","city_name":"多摩","address":"東京都　多摩市桜ケ丘２丁目３７番２","station":null,"distance_from_station":1200,"price":425000},"geometry":{"type":"Point","coordinates":[139.440752,35.6367694]}},{"type":"Feature","properties":{"city_code":"13224","city_name":"多摩","address":"東京都　多摩市大字一の宮字下向田２５０番１５","station":null,"distance_from_station":800,"price":480000},"geometry":{"type":"Point","coordinates":[139.440956,35.6494714]}},{"type":"Feature","properties":{"city_code":"13206","city_name":"府中","address":"東京都　府中市四谷４丁目１８番７","station":null,"distance_from_station":1700,"price":318000},"geometry":{"type":"Point","coordinates":[139.441241,35.6662122]}},{"type":"Feature","properties":{"city_code":"13214","city_name":"国分寺","address":"東京都　国分寺市高木町１丁目１０番２９外","station":null,"distance_from_station":1600,"price":380000},"geometry":{"type":"Point","coordinates":[139.44158,35.7107481]}},{"type":"Feature","properties":{"city_code":"13224","city_name":"多摩","address":"東京都　多摩市大字一の宮字居村９１６番１","station":null,"distance_from_station":850,"price":440000},"geometry":{"type":"Point","coordinates":[139.441653,35.6537106]}},{"type":"Feature","properties":{"city_code":"13209","city_name":"町田","address":"東京都　町田市中町２－８－３","station":null,"distance_from_station":970,"price":628000},"geometry":{"type":"Point","coordinates":[139.442012,35.5512333]}},{"type":"Feature","properties":{"city_code":"13209","city_name":"町田","address":"東京都　町田市本町田字乙参号２９０１番３４","station":null,"distance_from_station":3000,"price":253000},"geometry":{"type":"Point","coordinates":[139.442097,35.5691458]}},